[
    {
        "box_address_city": "전라남도",
        "box_address_town": "함평군",
        "box_address": "전라남도 함평군 중앙길 54-8",
        "box_lat": "35.0623848",
        "box_long": "126.524329"
    },
    {
        "box_address_city": "경기도",
        "box_address_town": "부천시",
        "box_address": "경기도 부천시 원미구 옥산로10번길 16",
        "box_lat": "37.4942085",
        "box_long": "123.7810171"
    },
    {
        "box_address_city": "경기도",
        "box_address_town": "부천시",
        "box_address": "경기도 부천시 소사구 경인옛로 73",
        "box_lat": "37.4802303",
        "box_long": "126.7999074"
    },
    {
        "box_address_city": "경기도",
        "box_address_town": "부천시",
        "box_address": "경기도 부천시 오정구 성오로 172",
        "box_lat": "37.5280532",
        "box_long": "126.7960424"
    },
    {
        "box_address_city": "경기도",
        "box_address_town": "부천시",
        "box_address": "경기도 부천시 원미구 역곡로 8 (역곡동)",
        "box_lat": "37.4861119",
        "box_long": "126.8117531"
    },
    {
        "box_address_city": "경기도",
        "box_address_town": "부천시",
        "box_address": "경기도 부천시 원미구 길주로 219, 508호 (중동)",
        "box_lat": "37.5047759",
        "box_long": "126.7667977"
    },
    {
        "box_address_city": "경기도",
        "box_address_town": "부천시",
        "box_address": "경기도 부천시 원미구 중동로 326, 103호 (중동)",
        "box_lat": "37.5087717",
        "box_long": "126.7699472"
    },
    {
        "box_address_city": "경기도",
        "box_address_town": "부천시",
        "box_address": "경기도 부천시 원미구 소향로 51, 101호 (상동)",
        "box_lat": "37.5034852",
        "box_long": "126.7534919"
    },
    {
        "box_address_city": "경기도",
        "box_address_town": "부천시",
        "box_address": "경기도 부천시 원미구 조마루로 103, 105호 (상동)",
        "box_lat": "37.5004391",
        "box_long": "126.7552332"
    },
    {
        "box_address_city": "경기도",
        "box_address_town": "부천시",
        "box_address": "경기도 부천시 원미구 부일로571번길 55 (소사동)",
        "box_lat": "37.486078",
        "box_long": "126.7916009"
    },
    {
        "box_address_city": "경기도",
        "box_address_town": "부천시",
        "box_address": "경기도 부천시 원미구 부일로571번길 54 (소사동)",
        "box_lat": "37.4860416",
        "box_long": "126.7919667"
    },
    {
        "box_address_city": "경기도",
        "box_address_town": "부천시",
        "box_address": "경기도 부천시 원미구 원미로97번길 32, 106호 (원미동)",
        "box_lat": "37.4916706",
        "box_long": "126.78897"
    },
    {
        "box_address_city": "경기도",
        "box_address_town": "부천시",
        "box_address": "경기도 부천시 원미구 원미로 113 (원미동)",
        "box_lat": "37.4927997",
        "box_long": "126.7907019"
    },
    {
        "box_address_city": "경기도",
        "box_address_town": "부천시",
        "box_address": "경기도 부천시 원미구 부천로 34 (심곡동)",
        "box_lat": "37.4871612",
        "box_long": "126.7837311"
    },
    {
        "box_address_city": "경기도",
        "box_address_town": "부천시",
        "box_address": "경기도 부천시 원미구 부천로 107 (심곡동)",
        "box_lat": "37.493812",
        "box_long": "126.7846422"
    },
    {
        "box_address_city": "경기도",
        "box_address_town": "부천시",
        "box_address": "경기도 부천시 원미구 소향로 246, 401호 (중동)",
        "box_lat": "37.5002973",
        "box_long": "126.7751555"
    },
    {
        "box_address_city": "경기도",
        "box_address_town": "부천시",
        "box_address": "경기도 부천시 원미구 조마루로385번길 92, 127호 U1센터 (춘의동)",
        "box_lat": "37.5008353",
        "box_long": "126.7901738"
    },
    {
        "box_address_city": "경기도",
        "box_address_town": "부천시",
        "box_address": "경기도 부천시 원미구 부천로 57-1, 101호(심곡동)",
        "box_lat": "37.4894958",
        "box_long": "126.7835798"
    },
    {
        "box_address_city": "경기도",
        "box_address_town": "부천시",
        "box_address": "경기도 부천시 소사구 옥길로 113, 105호 (옥길동)",
        "box_lat": "37.4673272",
        "box_long": "126.8220244"
    },
    {
        "box_address_city": "경기도",
        "box_address_town": "부천시",
        "box_address": "경기도 부천시 소사구 범안로 31, 107호 (괴안동)",
        "box_lat": "37.4789802",
        "box_long": "126.8072626"
    },
    {
        "box_address_city": "경기도",
        "box_address_town": "부천시",
        "box_address": "경기도 부천시 소사구 소사로 184 (소사본동)",
        "box_lat": "37.4746195",
        "box_long": "126.7957881"
    },
    {
        "box_address_city": "경기도",
        "box_address_town": "부천시",
        "box_address": "경기도 부천시 소사구 호현로 444 (소사본동)",
        "box_lat": "37.477308",
        "box_long": "126.7927711"
    },
    {
        "box_address_city": "경기도",
        "box_address_town": "부천시",
        "box_address": "경기도 부천시 소사구 심곡로27번길 50 (심곡본동)",
        "box_lat": "37.4809639",
        "box_long": "126.7790253"
    },
    {
        "box_address_city": "경기도",
        "box_address_town": "부천시",
        "box_address": "경기도 부천시 소사구 성주로 200 (심곡본동)",
        "box_lat": "37.4782799",
        "box_long": "126.7784301"
    },
    {
        "box_address_city": "경기도",
        "box_address_town": "부천시",
        "box_address": "경기도 부천시 소사구 경인로 126 (송내동)",
        "box_lat": "37.4838326",
        "box_long": "126.7693023"
    },
    {
        "box_address_city": "경기도",
        "box_address_town": "부천시",
        "box_address": "경기도 부천시 소사구 경인로 63 (송내동)",
        "box_lat": "37.4839526",
        "box_long": "126.7623653"
    },
    {
        "box_address_city": "경기도",
        "box_address_town": "부천시",
        "box_address": "경기도 부천시 소사구 은성로67번길 12 (소사본동)",
        "box_lat": "37.4757337",
        "box_long": "126.7991534"
    },
    {
        "box_address_city": "경기도",
        "box_address_town": "부천시",
        "box_address": "경기도 부천시 오정구 소사로 759 (원종동)",
        "box_lat": "37.5238397",
        "box_long": "126.8044942"
    },
    {
        "box_address_city": "경기도",
        "box_address_town": "부천시",
        "box_address": "경기도 부천시 오정구 소사로 758, 1층 (원종동)",
        "box_lat": "37.5236743",
        "box_long": "126.805207"
    },
    {
        "box_address_city": "경기도",
        "box_address_town": "부천시",
        "box_address": "경기도 부천시 오정구 소사로 758, 103호 (원종동)",
        "box_lat": "37.5236743",
        "box_long": "126.805207"
    },
    {
        "box_address_city": "서울특별시",
        "box_address_town": "성북구",
        "box_address": "서울특별시 성북구 보문로29다길 31",
        "box_lat": "37.58417735",
        "box_long": "127.0126186"
    },
    {
        "box_address_city": "경기도",
        "box_address_town": "부천시",
        "box_address": "경기도 부천시 오정구 소사로808번길 6 (원종동)",
        "box_lat": "37.5280106",
        "box_long": "126.8051818"
    },
    {
        "box_address_city": "경기도",
        "box_address_town": "부천시",
        "box_address": "경기도 부천시 오정구 성곡로 77, 1층 (여월동)",
        "box_lat": "37.5198065",
        "box_long": "126.7964858"
    },
    {
        "box_address_city": "경기도",
        "box_address_town": "부천시",
        "box_address": "경기도 부천시 오정구 소사로 706 (원종동)",
        "box_lat": "37.5188205",
        "box_long": "126.8051923"
    },
    {
        "box_address_city": "경기도",
        "box_address_town": "부천시",
        "box_address": "경기도 부천시 오정구 역곡로 474 (고강동)",
        "box_lat": "37.5268328",
        "box_long": "126.8164075"
    },
    {
        "box_address_city": "부산광역시",
        "box_address_town": "해운대구",
        "box_address": "부산광역시 해운대구 양운로37번길 59",
        "box_lat": "35.16402466",
        "box_long": "129.1790265"
    },
    {
        "box_address_city": "부산광역시",
        "box_address_town": "해운대구",
        "box_address": "부산광역시 해운대구 해운대로349번길 13",
        "box_lat": "35.17238105",
        "box_long": "129.1356593"
    },
    {
        "box_address_city": "충청남도",
        "box_address_town": "홍성군",
        "box_address": "충청남도 홍성군 광천읍 광천로 343",
        "box_lat": "36.5042065292",
        "box_long": "126.6245842157"
    },
    {
        "box_address_city": "충청남도",
        "box_address_town": "홍성군",
        "box_address": "충청남도 홍성군 금마면 광금북로482번길 18",
        "box_lat": "36.6126255030",
        "box_long": "126.7337030961"
    },
    {
        "box_address_city": "충청남도",
        "box_address_town": "홍성군",
        "box_address": "충청남도 홍성군 홍동면 광금남로 679",
        "box_lat": "36.5595145429",
        "box_long": "126.6869089627"
    },
    {
        "box_address_city": "충청남도",
        "box_address_town": "홍성군",
        "box_address": "충청남도 홍성군 은하면 은하로 267",
        "box_lat": "36.5327685285",
        "box_long": "126.5899851454"
    },
    {
        "box_address_city": "충청남도",
        "box_address_town": "홍성군",
        "box_address": "충청남도 홍성군 결성면 홍남서로 708",
        "box_lat": "36.5263493558",
        "box_long": "126.5445005763"
    },
    {
        "box_address_city": "충청남도",
        "box_address_town": "홍성군",
        "box_address": "충청남도 홍성군 서부면 이호길 41",
        "box_lat": "36.5813759491",
        "box_long": "126.5133720775"
    },
    {
        "box_address_city": "충청남도",
        "box_address_town": "홍성군",
        "box_address": "충청남도 홍성군 갈산면 갈산로120번길2",
        "box_lat": "36.6032547874",
        "box_long": "126.5517173004"
    },
    {
        "box_address_city": "충청남도",
        "box_address_town": "홍성군",
        "box_address": "충청남도 홍성군 홍동면 초롱산길 16",
        "box_lat": "36.5677702170",
        "box_long": "126.7250649388"
    },
    {
        "box_address_city": "충청남도",
        "box_address_town": "홍성군",
        "box_address": "충청남도 홍성군 홍성읍 충절로 1051",
        "box_lat": "36.5992196333",
        "box_long": "126.6663639418"
    },
    {
        "box_address_city": "충청남도",
        "box_address_town": "홍성군",
        "box_address": "충청남도 홍성군 홍성읍 조양로 141",
        "box_lat": "36.6018736668",
        "box_long": "126.6656565573"
    },
    {
        "box_address_city": "충청남도",
        "box_address_town": "홍성군",
        "box_address": "충청남도 홍성군 홍성읍 오관리 309-2",
        "box_lat": "36.6008760459",
        "box_long": "126.6670204922"
    },
    {
        "box_address_city": "충청남도",
        "box_address_town": "홍성군",
        "box_address": "충청남도 홍성군 홍성읍 조양로 221",
        "box_lat": "36.5999748461",
        "box_long": "126.6742686010"
    },
    {
        "box_address_city": "충청남도",
        "box_address_town": "홍성군",
        "box_address": "충청남도 홍성군 홍성읍 조양로 221-1",
        "box_lat": "36.6000206283",
        "box_long": "126.6741383180"
    },
    {
        "box_address_city": "충청남도",
        "box_address_town": "홍성군",
        "box_address": "충청남도 홍성군 홍성읍 조양로 203",
        "box_lat": "36.6004787959",
        "box_long": "126.6723410420"
    },
    {
        "box_address_city": "충청남도",
        "box_address_town": "홍성군",
        "box_address": "충청남도 홍성군 홍북읍 청사로 146",
        "box_lat": "36.6570432945",
        "box_long": "126.6793667775"
    },
    {
        "box_address_city": "충청남도",
        "box_address_town": "홍성군",
        "box_address": "충청남도 홍성군 홍북읍 홍학로 95",
        "box_lat": "36.6468459004",
        "box_long": "126.6764622403"
    },
    {
        "box_address_city": "충청남도",
        "box_address_town": "홍성군",
        "box_address": "충청남도 홍성군 홍북읍 청사로48번길 4",
        "box_lat": "36.6486396716",
        "box_long": "126.6752620505"
    },
    {
        "box_address_city": "충청남도",
        "box_address_town": "홍성군",
        "box_address": "충청남도 홍성군 홍북읍 청사로 150번길 20",
        "box_lat": "36.6570394515",
        "box_long": "126.6807541063"
    },
    {
        "box_address_city": "울산광역시",
        "box_address_town": "동구",
        "box_address": "울산광역시 동구 남목5길 45",
        "box_lat": "35.5421957956",
        "box_long": "129.4231995332"
    },
    {
        "box_address_city": "울산광역시",
        "box_address_town": "동구",
        "box_address": "울산광역시 동구 남목11길 20",
        "box_lat": "35.5443034660",
        "box_long": "129.4242544175"
    },
    {
        "box_address_city": "울산광역시",
        "box_address_town": "동구",
        "box_address": "울산광역시 동구 옥류로 92",
        "box_lat": "35.5468362722",
        "box_long": "129.4256119054"
    },
    {
        "box_address_city": "울산광역시",
        "box_address_town": "동구",
        "box_address": "울산광역시 동구 옥류로 77",
        "box_lat": "35.5456307628",
        "box_long": "129.4246138872"
    },
    {
        "box_address_city": "울산광역시",
        "box_address_town": "동구",
        "box_address": "울산광역시 동구 명덕로 30",
        "box_lat": "35.5244353288",
        "box_long": "129.4271932266"
    },
    {
        "box_address_city": "울산광역시",
        "box_address_town": "동구",
        "box_address": "울산광역시 동구 명덕로 70",
        "box_lat": "35.5238358741",
        "box_long": "129.4253484120"
    },
    {
        "box_address_city": "울산광역시",
        "box_address_town": "동구",
        "box_address": "울산광역시 동구 방어진순환도로 995",
        "box_lat": "35.5274280470",
        "box_long": "129.4297379525"
    },
    {
        "box_address_city": "울산광역시",
        "box_address_town": "동구",
        "box_address": "울산광역시 동구 봉수로 450",
        "box_lat": "35.5254839006",
        "box_long": "129.4251591792"
    },
    {
        "box_address_city": "울산광역시",
        "box_address_town": "동구",
        "box_address": "울산광역시 동구 서부로 50",
        "box_lat": "35.5275482566",
        "box_long": "129.4276860176"
    },
    {
        "box_address_city": "울산광역시",
        "box_address_town": "동구",
        "box_address": "울산광역시 동구 서부로 51",
        "box_lat": "35.5260944631",
        "box_long": "129.4299010302"
    },
    {
        "box_address_city": "울산광역시",
        "box_address_town": "동구",
        "box_address": "울산광역시 동구 방어진순환도로 999",
        "box_lat": "35.5305568769",
        "box_long": "129.4313302115"
    },
    {
        "box_address_city": "울산광역시",
        "box_address_town": "동구",
        "box_address": "울산광역시 화잠9길 45",
        "box_lat": "35.4834269155",
        "box_long": "129.4087826960"
    },
    {
        "box_address_city": "울산광역시",
        "box_address_town": "동구",
        "box_address": "울산광역시 동구 문현6길 19",
        "box_lat": "35.4869154331",
        "box_long": "129.4120549502"
    },
    {
        "box_address_city": "울산광역시",
        "box_address_town": "동구",
        "box_address": "울산광역시 동구 화잠1길 29",
        "box_lat": "35.4853498916",
        "box_long": "129.4098493361"
    },
    {
        "box_address_city": "울산광역시",
        "box_address_town": "동구",
        "box_address": "울산광역시 동구 문재3길 34",
        "box_lat": "35.4839226508",
        "box_long": "129.4168593925"
    },
    {
        "box_address_city": "울산광역시",
        "box_address_town": "동구",
        "box_address": "울산광역시 동구 등대4길 25",
        "box_lat": "35.4900843250",
        "box_long": "129.4284920692"
    },
    {
        "box_address_city": "울산광역시",
        "box_address_town": "동구",
        "box_address": "울산광역시 동구 문현1길 37",
        "box_lat": "35.4889897900",
        "box_long": "129.4123723000"
    },
    {
        "box_address_city": "울산광역시",
        "box_address_town": "동구",
        "box_address": "울산광역시 동구 등대4길 26",
        "box_lat": "35.4888368375",
        "box_long": "129.4320507948"
    },
    {
        "box_address_city": "울산광역시",
        "box_address_town": "동구",
        "box_address": "울산광역시 동구 화문로 70",
        "box_lat": "35.4824210978",
        "box_long": "129.4146574504"
    },
    {
        "box_address_city": "울산광역시",
        "box_address_town": "동구",
        "box_address": "울산광역시 동구 방어진순환도로 865",
        "box_lat": "35.5184171604",
        "box_long": "129.4308800328"
    },
    {
        "box_address_city": "울산광역시",
        "box_address_town": "동구",
        "box_address": "울산광역시 동구 산록길 68",
        "box_lat": "35.5140170434",
        "box_long": "129.4200753876"
    },
    {
        "box_address_city": "울산광역시",
        "box_address_town": "동구",
        "box_address": "울산광역시 동구 봉수로 370",
        "box_lat": "35.5177831321",
        "box_long": "129.4271212370"
    },
    {
        "box_address_city": "울산광역시",
        "box_address_town": "동구",
        "box_address": "울산광역시 동구 녹수11길 50",
        "box_lat": "35.5158573877",
        "box_long": "129.4260353351"
    },
    {
        "box_address_city": "울산광역시",
        "box_address_town": "동구",
        "box_address": "울산광역시 동구 바드래1길 46",
        "box_lat": "35.5177435959",
        "box_long": "129.4277422902"
    },
    {
        "box_address_city": "울산광역시",
        "box_address_town": "동구",
        "box_address": "울산광역시 동구 진성6길 110",
        "box_lat": "35.5076836984",
        "box_long": "129.4219959365"
    },
    {
        "box_address_city": "울산광역시",
        "box_address_town": "동구",
        "box_address": "울산광역시 동구 봉수로 270",
        "box_lat": "35.5098595262",
        "box_long": "129.4220144775"
    },
    {
        "box_address_city": "울산광역시",
        "box_address_town": "동구",
        "box_address": "울산광역시 동구 봉수로 250",
        "box_lat": "35.5091738107",
        "box_long": "129.4216432235"
    },
    {
        "box_address_city": "울산광역시",
        "box_address_town": "동구",
        "box_address": "울산광역시 동구 봉수로 290",
        "box_lat": "35.5125072671",
        "box_long": "129.4235556581"
    },
    {
        "box_address_city": "울산광역시",
        "box_address_town": "동구",
        "box_address": "울산광역시 동구 봉수로 170",
        "box_lat": "35.5023402705",
        "box_long": "129.4175716598"
    },
    {
        "box_address_city": "울산광역시",
        "box_address_town": "동구",
        "box_address": "울산광역시 동구 월봉10길 16",
        "box_lat": "35.4942021830",
        "box_long": "129.4186647046"
    },
    {
        "box_address_city": "울산광역시",
        "box_address_town": "동구",
        "box_address": "울산광역시 동구 봉수로 110",
        "box_lat": "35.4981018257",
        "box_long": "129.4186149528"
    },
    {
        "box_address_city": "울산광역시",
        "box_address_town": "동구",
        "box_address": "울산광역시 동구 화진길 100",
        "box_lat": "35.4937725225",
        "box_long": "129.4229353938"
    },
    {
        "box_address_city": "울산광역시",
        "box_address_town": "동구",
        "box_address": "울산광역시 동구 안산들로 55",
        "box_lat": "35.5377634410",
        "box_long": "129.4233231055"
    },
    {
        "box_address_city": "울산광역시",
        "box_address_town": "동구",
        "box_address": "울산광역시 동구 방어진순환도로 1271",
        "box_lat": "35.5324134389",
        "box_long": "129.4144231928"
    },
    {
        "box_address_city": "울산광역시",
        "box_address_town": "동구",
        "box_address": "울산광역시 동구 방어진순환도로 1273-1",
        "box_lat": "35.5319333600",
        "box_long": "129.4140903000"
    },
    {
        "box_address_city": "울산광역시",
        "box_address_town": "동구",
        "box_address": "울산광역시 동구 남목10길 22",
        "box_lat": "35.5427237639",
        "box_long": "129.4244963498"
    },
    {
        "box_address_city": "울산광역시",
        "box_address_town": "동구",
        "box_address": "울산광역시 동구 명덕6길 33",
        "box_lat": "35.5246173200",
        "box_long": "129.4314639000"
    },
    {
        "box_address_city": "울산광역시",
        "box_address_town": "동구",
        "box_address": "울산광역시 동구 문현3길 6",
        "box_lat": "35.4870581300",
        "box_long": "129.4112633000"
    },
    {
        "box_address_city": "울산광역시",
        "box_address_town": "동구",
        "box_address": "울산광역시 동구 상진1길 21",
        "box_lat": "35.4831340672",
        "box_long": "129.4219792603"
    },
    {
        "box_address_city": "울산광역시",
        "box_address_town": "동구",
        "box_address": "울산광역시 동구 화잠8길 10",
        "box_lat": "35.4834447324",
        "box_long": "129.4096950491"
    },
    {
        "box_address_city": "울산광역시",
        "box_address_town": "동구",
        "box_address": "울산광역시 동구 꽃바위로 356",
        "box_lat": "35.4877556561",
        "box_long": "129.4260212817"
    },
    {
        "box_address_city": "울산광역시",
        "box_address_town": "동구",
        "box_address": "울산광역시 동구 녹수길 25, 1층",
        "box_lat": "35.5132936300",
        "box_long": "129.4295402000"
    },
    {
        "box_address_city": "울산광역시",
        "box_address_town": "동구",
        "box_address": "울산광역시 동구 진성12길 120",
        "box_lat": "35.5106160169",
        "box_long": "129.4274906765"
    },
    {
        "box_address_city": "울산광역시",
        "box_address_town": "동구",
        "box_address": "울산광역시 동구 진성1길 3",
        "box_lat": "35.5116745768",
        "box_long": "129.4296415089"
    },
    {
        "box_address_city": "울산광역시",
        "box_address_town": "동구",
        "box_address": "울산광역시 동구 봉수로 155",
        "box_lat": "35.5050697141",
        "box_long": "129.4164300358"
    },
    {
        "box_address_city": "울산광역시",
        "box_address_town": "동구",
        "box_address": "울산광역시 동구 봉수로 155",
        "box_lat": "35.5050697141",
        "box_long": "129.4164300358"
    },
    {
        "box_address_city": "울산광역시",
        "box_address_town": "동구",
        "box_address": "울산광역시 동구 방어진순환도로 594",
        "box_lat": "35.4946791602",
        "box_long": "129.4274512898"
    },
    {
        "box_address_city": "울산광역시",
        "box_address_town": "동구",
        "box_address": "울산광역시 동구 봉수로 155",
        "box_lat": "35.5050697141",
        "box_long": "129.4164300358"
    },
    {
        "box_address_city": "울산광역시",
        "box_address_town": "동구",
        "box_address": "울산광역시 동구 명덕6길 33",
        "box_lat": "35.5246173200",
        "box_long": "129.4314639000"
    },
    {
        "box_address_city": "경기도",
        "box_address_town": "군포시",
        "box_address": "경기도 군포시 군포로 531",
        "box_lat": "37.35361204",
        "box_long": "126.9455589"
    },
    {
        "box_address_city": "경기도",
        "box_address_town": "군포시",
        "box_address": "경기도 군포시 고산로 263",
        "box_lat": "37.34634696",
        "box_long": "126.94308"
    },
    {
        "box_address_city": "경기도",
        "box_address_town": "군포시",
        "box_address": "경기도 군포시 고산로724번길 13",
        "box_lat": "37.37336832",
        "box_long": "126.9385758"
    },
    {
        "box_address_city": "경기도",
        "box_address_town": "군포시",
        "box_address": "경기도 군포시 고산로 663",
        "box_lat": "37.37002007",
        "box_long": "126.9327115"
    },
    {
        "box_address_city": "경기도",
        "box_address_town": "군포시",
        "box_address": "경기도 군포시 금산로 35",
        "box_lat": "37.36540019",
        "box_long": "126.9392714"
    },
    {
        "box_address_city": "경기도",
        "box_address_town": "군포시",
        "box_address": "경기도 군포시 번영로550번길 25",
        "box_lat": "37.35843909",
        "box_long": "126.9390402"
    },
    {
        "box_address_city": "경기도",
        "box_address_town": "군포시",
        "box_address": "경기도 군포시 고산로 406",
        "box_lat": "37.35103214",
        "box_long": "126.9295372"
    },
    {
        "box_address_city": "경기도",
        "box_address_town": "군포시",
        "box_address": "경기도 군포시 수리산로 38",
        "box_lat": "37.35606667",
        "box_long": "126.9210368"
    },
    {
        "box_address_city": "경기도",
        "box_address_town": "군포시",
        "box_address": "경기도 군포시 고산로517번길 10",
        "box_lat": "37.35965817",
        "box_long": "126.9218479"
    },
    {
        "box_address_city": "경기도",
        "box_address_town": "군포시",
        "box_address": "경기도 군포시 광정로 106",
        "box_lat": "37.36208607",
        "box_long": "126.927942"
    },
    {
        "box_address_city": "경기도",
        "box_address_town": "군포시",
        "box_address": "경기도 군포시 대야2로 139",
        "box_lat": "37.33028283",
        "box_long": "126.9153444"
    },
    {
        "box_address_city": "경기도",
        "box_address_town": "군포시",
        "box_address": "경기도 군포시 송부로74번길 3-32",
        "box_lat": "37.31622446",
        "box_long": "126.9238208"
    },
    {
        "box_address_city": "부산광역시",
        "box_address_town": "연제구",
        "box_address": "부산광역시 연제구 연제로 2",
        "box_lat": "35.17621174",
        "box_long": "129.0797456"
    },
    {
        "box_address_city": "부산광역시",
        "box_address_town": "연제구",
        "box_address": "부산광역시 연제구 연제로 2",
        "box_lat": "35.17621174",
        "box_long": "129.0797456"
    },
    {
        "box_address_city": "부산광역시",
        "box_address_town": "연제구",
        "box_address": "부산광역시 연제구 거제시장로22번길 70",
        "box_lat": "35.18409405",
        "box_long": "129.0730734"
    },
    {
        "box_address_city": "부산광역시",
        "box_address_town": "연제구",
        "box_address": "부산광역시 연제구 해맞이로 53",
        "box_lat": "35.17914039",
        "box_long": "129.0678248"
    },
    {
        "box_address_city": "부산광역시",
        "box_address_town": "연제구",
        "box_address": "부산광역시 연제구 고분로 188",
        "box_lat": "35.18536551",
        "box_long": "129.1027976"
    },
    {
        "box_address_city": "부산광역시",
        "box_address_town": "연제구",
        "box_address": "부산광역시 연제구 봉수로 17",
        "box_lat": "35.17272747",
        "box_long": "129.0889089"
    },
    {
        "box_address_city": "경상북도",
        "box_address_town": "영주시",
        "box_address": "경상북도 영주시 번영로 103-4",
        "box_lat": "36.821464000",
        "box_long": "128.628289000"
    },
    {
        "box_address_city": "부산광역시",
        "box_address_town": "연제구",
        "box_address": "부산광역시 연제구 아시아드대로46번길 45",
        "box_lat": "35.1884749",
        "box_long": "129.0707003"
    },
    {
        "box_address_city": "부산광역시",
        "box_address_town": "연제구",
        "box_address": "부산광역시 연제구 황령산로 612",
        "box_lat": "35.17414529",
        "box_long": "129.0829701"
    },
    {
        "box_address_city": "부산광역시",
        "box_address_town": "연제구",
        "box_address": "부산광역시 연제구 안연로8번길 71",
        "box_lat": "35.18861382",
        "box_long": "129.1049118"
    },
    {
        "box_address_city": "부산광역시",
        "box_address_town": "연제구",
        "box_address": "부산광역시 연제구 쌍미천로 132",
        "box_lat": "35.18415343",
        "box_long": "129.0874854"
    },
    {
        "box_address_city": "부산광역시",
        "box_address_town": "연제구",
        "box_address": "부산광역시 연제구 법원남로9번길 17",
        "box_lat": "35.18951105",
        "box_long": "129.0742898"
    },
    {
        "box_address_city": "부산광역시",
        "box_address_town": "연제구",
        "box_address": "부산광역시 연제구 법원북로 88",
        "box_lat": "35.1918532",
        "box_long": "129.0756383"
    },
    {
        "box_address_city": "부산광역시",
        "box_address_town": "연제구",
        "box_address": "부산광역시 연제구 아시아드대로22번길 19",
        "box_lat": "35.18776194",
        "box_long": "129.0702873"
    },
    {
        "box_address_city": "부산광역시",
        "box_address_town": "연제구",
        "box_address": "부산광역시 연제구 거제대로 180",
        "box_lat": "35.18428551",
        "box_long": "129.071201"
    },
    {
        "box_address_city": "부산광역시",
        "box_address_town": "연제구",
        "box_address": "부산광역시 연제구 화지로52번길 33",
        "box_lat": "35.18008102",
        "box_long": "129.0658872"
    },
    {
        "box_address_city": "부산광역시",
        "box_address_town": "연제구",
        "box_address": "부산광역시 연제구 연동로8번길 66",
        "box_lat": "35.18998727",
        "box_long": "129.0904228"
    },
    {
        "box_address_city": "부산광역시",
        "box_address_town": "연제구",
        "box_address": "부산광역시 연제구 중앙대로1038번길 39",
        "box_lat": "35.17997379",
        "box_long": "129.0792948"
    },
    {
        "box_address_city": "부산광역시",
        "box_address_town": "연제구",
        "box_address": "부산광역시 연제구 연수로218번길 4",
        "box_lat": "35.17334797",
        "box_long": "129.0942269"
    },
    {
        "box_address_city": "부산광역시",
        "box_address_town": "연제구",
        "box_address": "부산광역시 연제구 쌍미천로151번길 42",
        "box_lat": "35.18628827",
        "box_long": "129.0849277"
    },
    {
        "box_address_city": "부산광역시",
        "box_address_town": "연제구",
        "box_address": "부산광역시 연제구 거제천로124번길 15",
        "box_lat": "35.18448619",
        "box_long": "129.0760783"
    },
    {
        "box_address_city": "부산광역시",
        "box_address_town": "연제구",
        "box_address": "부산광역시 연제구 쌍미천로52번길 2",
        "box_lat": "35.1774563",
        "box_long": "129.08966"
    },
    {
        "box_address_city": "부산광역시",
        "box_address_town": "연제구",
        "box_address": "부산광역시 연제구 과정로251번길 33",
        "box_lat": "35.18712232",
        "box_long": "129.1009904"
    },
    {
        "box_address_city": "부산광역시",
        "box_address_town": "연제구",
        "box_address": "부산광역시 연제구 과정로164번길 38",
        "box_lat": "35.1859033",
        "box_long": "129.1093819"
    },
    {
        "box_address_city": "충청북도",
        "box_address_town": "충주시",
        "box_address": "충청북도 충주시 사직산21길 34 충주시보건소",
        "box_lat": "36.97090081",
        "box_long": "127.9280121"
    },
    {
        "box_address_city": "충청북도",
        "box_address_town": "충주시",
        "box_address": "충청북도 충주시 신덕로 1359 주덕보건지소",
        "box_lat": "36.97555041",
        "box_long": "127.794977"
    },
    {
        "box_address_city": "충청북도",
        "box_address_town": "충주시",
        "box_address": "충청북도 충주시 대소원면 대소원1길 29",
        "box_lat": "36.97797466",
        "box_long": "127.8172778"
    },
    {
        "box_address_city": "충청북도",
        "box_address_town": "충주시",
        "box_address": "충청북도 충주시 중앙탑면 중앙탑길 247",
        "box_lat": "37.02880971",
        "box_long": "127.8573279"
    },
    {
        "box_address_city": "충청북도",
        "box_address_town": "충주시",
        "box_address": "충청북도 충주시 신니면 안용원로 7",
        "box_lat": "36.99543222",
        "box_long": "127.7363343"
    },
    {
        "box_address_city": "충청북도",
        "box_address_town": "충주시",
        "box_address": "충청북도 충주시 소태면 쟁골1길 1",
        "box_lat": "37.11002825",
        "box_long": "127.847962"
    },
    {
        "box_address_city": "충청북도",
        "box_address_town": "충주시",
        "box_address": "충청북도 충주시 산척면 동산로 736",
        "box_lat": "37.08170294",
        "box_long": "127.9558372"
    },
    {
        "box_address_city": "충청북도",
        "box_address_town": "충주시",
        "box_address": "충청북도 충주시 살미면 문산길 29",
        "box_lat": "36.8920941",
        "box_long": "127.9479324"
    },
    {
        "box_address_city": "충청북도",
        "box_address_town": "충주시",
        "box_address": "충청북도 충주시 살미면 공이동길 508-22",
        "box_lat": "36.88203277",
        "box_long": "128.0361142"
    },
    {
        "box_address_city": "충청북도",
        "box_address_town": "충주시",
        "box_address": "충청북도 충주시 중앙탑면 창말고개길 2",
        "box_lat": "37.07469093",
        "box_long": "127.8601332"
    },
    {
        "box_address_city": "충청북도",
        "box_address_town": "충주시",
        "box_address": "충청북도 충주시 신니면 동락길 49",
        "box_lat": "37.00588778",
        "box_long": "127.6851618"
    },
    {
        "box_address_city": "충청북도",
        "box_address_town": "충주시",
        "box_address": "충청북도 충주시 수안보면 사문한절2길 6",
        "box_lat": "36.84009505",
        "box_long": "128.0223926"
    },
    {
        "box_address_city": "충청북도",
        "box_address_town": "충주시",
        "box_address": "충청북도 충주시 중앙로 67, 신천지타운 102호 (충의동)",
        "box_lat": "36.97311935",
        "box_long": "127.9308629"
    },
    {
        "box_address_city": "충청북도",
        "box_address_town": "충주시",
        "box_address": "충청북도 충주시 예성4길 52 (교현동)",
        "box_lat": "36.97559001",
        "box_long": "127.9334553"
    },
    {
        "box_address_city": "충청북도",
        "box_address_town": "충주시",
        "box_address": "충청북도 충주시 광명1길 2 (교현동)",
        "box_lat": "36.97848038",
        "box_long": "127.9292631"
    },
    {
        "box_address_city": "충청북도",
        "box_address_town": "충주시",
        "box_address": "충청북도 충주시 예성로 186 (성내동)",
        "box_lat": "36.972878",
        "box_long": "127.934401"
    },
    {
        "box_address_city": "충청북도",
        "box_address_town": "충주시",
        "box_address": "충청북도 충주시 앙성면 용당1길 30",
        "box_lat": "37.10727369",
        "box_long": "127.7571017"
    },
    {
        "box_address_city": "충청북도",
        "box_address_town": "충주시",
        "box_address": "충청북도 충주시 예성로 129 (용산동)",
        "box_lat": "36.9684076",
        "box_long": "127.9333042"
    },
    {
        "box_address_city": "충청북도",
        "box_address_town": "충주시",
        "box_address": "충청북도 충주시 남산4길 52 (교현동)",
        "box_lat": "36.96644883",
        "box_long": "127.9448509"
    },
    {
        "box_address_city": "충청북도",
        "box_address_town": "충주시",
        "box_address": "충청북도 충주시 번영대로 190 (연수동)",
        "box_lat": "36.98687538",
        "box_long": "127.9386693"
    },
    {
        "box_address_city": "충청북도",
        "box_address_town": "충주시",
        "box_address": "충청북도 충주시 번영대로 195 (연수동)",
        "box_lat": "36.98739852",
        "box_long": "127.93959"
    },
    {
        "box_address_city": "충청북도",
        "box_address_town": "충주시",
        "box_address": "충청북도 충주시 충인2길 6-1, 1층 (충의동)",
        "box_lat": "36.97337139",
        "box_long": "127.9303572"
    },
    {
        "box_address_city": "충청북도",
        "box_address_town": "충주시",
        "box_address": "충청북도 충주시 대소원면 쇠실로 1016",
        "box_lat": "36.97504845",
        "box_long": "127.8189807"
    },
    {
        "box_address_city": "충청북도",
        "box_address_town": "충주시",
        "box_address": "충청북도 충주시 국원대로 78 (교현동)",
        "box_lat": "36.9784439",
        "box_long": "127.9285106"
    },
    {
        "box_address_city": "충청북도",
        "box_address_town": "충주시",
        "box_address": "충청북도 충주시 남산로 74 (용산동, 충주농협용산지점)",
        "box_lat": "36.96152637",
        "box_long": "127.9404747"
    },
    {
        "box_address_city": "충청북도",
        "box_address_town": "충주시",
        "box_address": "충청북도 충주시 국원대로 72 (교현동)",
        "box_lat": "36.97766878",
        "box_long": "127.9283316"
    },
    {
        "box_address_city": "충청북도",
        "box_address_town": "충주시",
        "box_address": "충청북도 충주시 번영대로 182 (연수동)",
        "box_lat": "36.986884",
        "box_long": "127.9378941"
    },
    {
        "box_address_city": "충청북도",
        "box_address_town": "충주시",
        "box_address": "충청북도 충주시 봉계1길 66 (칠금동)",
        "box_lat": "36.98212196",
        "box_long": "127.9164768"
    },
    {
        "box_address_city": "충청북도",
        "box_address_town": "충주시",
        "box_address": "충청북도 충주시 대소원면 대학로 2",
        "box_lat": "36.96300411",
        "box_long": "127.8710717"
    },
    {
        "box_address_city": "충청북도",
        "box_address_town": "충주시",
        "box_address": "충청북도 충주시 예성로 177 (충인동)",
        "box_lat": "36.97279646",
        "box_long": "127.9336037"
    },
    {
        "box_address_city": "충청북도",
        "box_address_town": "충주시",
        "box_address": "충청북도 충주시 중앙탑면 중앙탑길 145",
        "box_lat": "37.0209125",
        "box_long": "127.8624448"
    },
    {
        "box_address_city": "충청북도",
        "box_address_town": "충주시",
        "box_address": "충청북도 충주시 행정13길 5 (목행동)",
        "box_lat": "37.01452842",
        "box_long": "127.917251"
    },
    {
        "box_address_city": "충청북도",
        "box_address_town": "충주시",
        "box_address": "충청북도 충주시 계명대로 253, 1층 (연수동)",
        "box_lat": "36.98285819",
        "box_long": "127.9428062"
    },
    {
        "box_address_city": "충청북도",
        "box_address_town": "충주시",
        "box_address": "충청북도 충주시 계명대로 229 (연수동)",
        "box_lat": "36.98275775",
        "box_long": "127.9400766"
    },
    {
        "box_address_city": "충청북도",
        "box_address_town": "충주시",
        "box_address": "충청북도 충주시 번영대로 239 (연수동)",
        "box_lat": "36.9874278",
        "box_long": "127.9442857"
    },
    {
        "box_address_city": "충청북도",
        "box_address_town": "충주시",
        "box_address": "충청북도 충주시 계명대로 22 (칠금동)",
        "box_lat": "36.98215825",
        "box_long": "127.916825"
    },
    {
        "box_address_city": "충청북도",
        "box_address_town": "충주시",
        "box_address": "충청북도 충주시 충인5길 13-1 (충인동)",
        "box_lat": "36.97392271",
        "box_long": "127.9332208"
    },
    {
        "box_address_city": "충청북도",
        "box_address_town": "충주시",
        "box_address": "충청북도 충주시 중앙로 49 (문화동)",
        "box_lat": "36.97306411",
        "box_long": "127.9288525"
    },
    {
        "box_address_city": "충청북도",
        "box_address_town": "충주시",
        "box_address": "충청북도 충주시 사직로 234 (성남동)",
        "box_lat": "36.9691215",
        "box_long": "127.9370098"
    },
    {
        "box_address_city": "충청북도",
        "box_address_town": "충주시",
        "box_address": "충청북도 충주시 중앙로 17 (문화동)",
        "box_lat": "36.97298082",
        "box_long": "127.9252248"
    },
    {
        "box_address_city": "충청북도",
        "box_address_town": "충주시",
        "box_address": "충청북도 충주시 사직로 281, 1층 (안림동)",
        "box_lat": "36.96899791",
        "box_long": "127.9421873"
    },
    {
        "box_address_city": "충청북도",
        "box_address_town": "충주시",
        "box_address": "충청북도 충주시 광명2길 4 (교현동)",
        "box_lat": "36.97845303",
        "box_long": "127.9287128"
    },
    {
        "box_address_city": "충청북도",
        "box_address_town": "충주시",
        "box_address": "충청북도 충주시 봉계1길 62 (칠금동)",
        "box_lat": "36.98185142",
        "box_long": "127.9162075"
    },
    {
        "box_address_city": "충청북도",
        "box_address_town": "충주시",
        "box_address": "충청북도 충주시 계명대로 23 (칠금동)",
        "box_lat": "36.98263594",
        "box_long": "127.9169256"
    },
    {
        "box_address_city": "충청북도",
        "box_address_town": "충주시",
        "box_address": "충청북도 충주시 성서8길 24(성서동)",
        "box_lat": "36.97153427",
        "box_long": "127.9326051"
    },
    {
        "box_address_city": "충청북도",
        "box_address_town": "충주시",
        "box_address": "충청북도 충주시 중앙탑면 원앙9길 18-2, 센텀빌딩 지1층",
        "box_lat": "37.01685439",
        "box_long": "127.8256364"
    },
    {
        "box_address_city": "충청북도",
        "box_address_town": "충주시",
        "box_address": "충청북도 충주시 봉계1길 64 (칠금동)",
        "box_lat": "36.9819867",
        "box_long": "127.9163534"
    },
    {
        "box_address_city": "충청북도",
        "box_address_town": "충주시",
        "box_address": "충청북도 충주시 중앙로 71 (충의동)",
        "box_lat": "36.97289427",
        "box_long": "127.931245"
    },
    {
        "box_address_city": "충청북도",
        "box_address_town": "충주시",
        "box_address": "충청북도 충주시 주공길 10, 1층 106호 (연수동, 연수주공아파트)",
        "box_lat": "36.9875416",
        "box_long": "127.9373993"
    },
    {
        "box_address_city": "충청북도",
        "box_address_town": "충주시",
        "box_address": "충청북도 충주시 형설로 98 (용산동)",
        "box_lat": "36.96267954",
        "box_long": "127.9398"
    },
    {
        "box_address_city": "충청북도",
        "box_address_town": "충주시",
        "box_address": "충청북도 충주시 연수상가3길 6 (연수동)",
        "box_lat": "36.98791642",
        "box_long": "127.9306476"
    },
    {
        "box_address_city": "충청북도",
        "box_address_town": "충주시",
        "box_address": "충청북도 충주시 산척면 천등박달로 135",
        "box_lat": "37.08039639",
        "box_long": "127.9561754"
    },
    {
        "box_address_city": "충청북도",
        "box_address_town": "충주시",
        "box_address": "충청북도 충주시 번영대로 176 (연수동)",
        "box_lat": "36.98691962",
        "box_long": "127.9370516"
    },
    {
        "box_address_city": "충청북도",
        "box_address_town": "충주시",
        "box_address": "충청북도 충주시 수안보면 물탕2길 24",
        "box_lat": "36.84700936",
        "box_long": "127.9917829"
    },
    {
        "box_address_city": "충청북도",
        "box_address_town": "충주시",
        "box_address": "충청북도 충주시 연수동산로2길 1, 1층 (연수동)",
        "box_lat": "36.98573138",
        "box_long": "127.939625"
    },
    {
        "box_address_city": "충청북도",
        "box_address_town": "충주시",
        "box_address": "충청북도 충주시 남산로 73 (용산동)",
        "box_lat": "36.96183271",
        "box_long": "127.9403509"
    },
    {
        "box_address_city": "충청북도",
        "box_address_town": "충주시",
        "box_address": "충청북도 충주시 주덕읍 신양로 120",
        "box_lat": "36.97316242",
        "box_long": "127.8003632"
    },
    {
        "box_address_city": "충청북도",
        "box_address_town": "충주시",
        "box_address": "충청북도 충주시 번영대로 121 (연수동)",
        "box_lat": "36.98745718",
        "box_long": "127.931277"
    },
    {
        "box_address_city": "충청북도",
        "box_address_town": "충주시",
        "box_address": "충청북도 충주시 국원대로 184 (연수동)",
        "box_lat": "36.98800535",
        "box_long": "127.9286029"
    },
    {
        "box_address_city": "충청북도",
        "box_address_town": "충주시",
        "box_address": "충청북도 충주시 엄정면 토끼미1길 29",
        "box_lat": "37.08648409",
        "box_long": "127.9146658"
    },
    {
        "box_address_city": "충청북도",
        "box_address_town": "충주시",
        "box_address": "충청북도 충주시 남산로 103 (용산동)",
        "box_lat": "36.9619695",
        "box_long": "127.9437423"
    },
    {
        "box_address_city": "충청북도",
        "box_address_town": "충주시",
        "box_address": "충청북도 충주시 갱고개로 219, 1층 (연수동)",
        "box_lat": "36.9905701",
        "box_long": "127.9385203"
    },
    {
        "box_address_city": "충청북도",
        "box_address_town": "충주시",
        "box_address": "충청북도 충주시 계명대로 30 (칠금동)",
        "box_lat": "36.98209572",
        "box_long": "127.9176338"
    },
    {
        "box_address_city": "충청북도",
        "box_address_town": "충주시",
        "box_address": "충청북도 충주시 중앙로 73 (충인동)",
        "box_lat": "36.97284043",
        "box_long": "127.9316493"
    },
    {
        "box_address_city": "충청북도",
        "box_address_town": "충주시",
        "box_address": "충청북도 충주시 탄금대로 2-1 (문화동)",
        "box_lat": "36.97320776",
        "box_long": "127.9279314"
    },
    {
        "box_address_city": "충청북도",
        "box_address_town": "충주시",
        "box_address": "충청북도 충주시 거룡2길 77 (용산동)",
        "box_lat": "36.96468765",
        "box_long": "127.9368449"
    },
    {
        "box_address_city": "충청북도",
        "box_address_town": "충주시",
        "box_address": "충청북도 충주시 계명대로 19 (칠금동)",
        "box_lat": "36.9826357",
        "box_long": "127.9165886"
    },
    {
        "box_address_city": "충청북도",
        "box_address_town": "충주시",
        "box_address": "충청북도 충주시 예성로 395 (연수동)",
        "box_lat": "36.99155889",
        "box_long": "127.9337787"
    },
    {
        "box_address_city": "충청북도",
        "box_address_town": "충주시",
        "box_address": "충청북도 충주시 천변로 169 (교현동)",
        "box_lat": "36.97675785",
        "box_long": "127.9270744"
    },
    {
        "box_address_city": "충청북도",
        "box_address_town": "충주시",
        "box_address": "충청북도 충주시 앙성면 가곡로 1034 (하나의원)",
        "box_lat": "37.10758193",
        "box_long": "127.7536128"
    },
    {
        "box_address_city": "충청북도",
        "box_address_town": "충주시",
        "box_address": "충청북도 충주시 국원대로 187 (금릉동)",
        "box_lat": "36.9882532",
        "box_long": "127.9281019"
    },
    {
        "box_address_city": "충청북도",
        "box_address_town": "충주시",
        "box_address": "충청북도 충주시 만리산로 22 (교현동)",
        "box_lat": "36.9743961",
        "box_long": "127.9425765"
    },
    {
        "box_address_city": "충청북도",
        "box_address_town": "충주시",
        "box_address": "충청북도 충주시 중앙로 59 (충의동)",
        "box_lat": "36.97309184",
        "box_long": "127.930043"
    },
    {
        "box_address_city": "충청북도",
        "box_address_town": "충주시",
        "box_address": "충청북도 충주시 중앙로 80 (성서동)",
        "box_lat": "36.97221892",
        "box_long": "127.9321778"
    },
    {
        "box_address_city": "충청북도",
        "box_address_town": "충주시",
        "box_address": "충청북도 충주시 주덕읍 신양로 126-1",
        "box_lat": "36.97353306",
        "box_long": "127.8010586"
    },
    {
        "box_address_city": "충청북도",
        "box_address_town": "충주시",
        "box_address": "충청북도 충주시 주덕읍 신양로 121",
        "box_lat": "36.97370316",
        "box_long": "127.8003843"
    },
    {
        "box_address_city": "경상북도",
        "box_address_town": "영주시",
        "box_address": "경상북도 영주시 번영로64번길 34-15",
        "box_lat": "36.817089000",
        "box_long": "128.630420000"
    },
    {
        "box_address_city": "충청북도",
        "box_address_town": "충주시",
        "box_address": "충청북도 충주시 주덕읍 주덕1길 2",
        "box_lat": "36.97377182",
        "box_long": "127.79834"
    },
    {
        "box_address_city": "충청북도",
        "box_address_town": "충주시",
        "box_address": "충청북도 충주시 탄금대로 8-1 (문화동)",
        "box_lat": "36.97351383",
        "box_long": "127.927392"
    },
    {
        "box_address_city": "충청북도",
        "box_address_town": "충주시",
        "box_address": "충청북도 충주시 충인2길 11 (충의동)",
        "box_lat": "36.97392998",
        "box_long": "127.9301209"
    },
    {
        "box_address_city": "충청북도",
        "box_address_town": "충주시",
        "box_address": "충청북도 충주시 중심3길 6 (문화동)",
        "box_lat": "36.973639",
        "box_long": "127.925763"
    },
    {
        "box_address_city": "충청북도",
        "box_address_town": "충주시",
        "box_address": "충청북도 충주시 광명1길 4 (교현동)",
        "box_lat": "36.97863358",
        "box_long": "127.9292518"
    },
    {
        "box_address_city": "충청북도",
        "box_address_town": "충주시",
        "box_address": "충청북도 충주시 약막7길 44-11 (안림동)",
        "box_lat": "36.97892962",
        "box_long": "127.9694523"
    },
    {
        "box_address_city": "충청북도",
        "box_address_town": "충주시",
        "box_address": "충청북도 충주시  봉계1길  49 (칠금동)",
        "box_lat": "36.9815978",
        "box_long": "127.9143656"
    },
    {
        "box_address_city": "충청북도",
        "box_address_town": "충주시",
        "box_address": "충청북도 충주시 봉계1길 42 (봉방동, 덕영빌딩)",
        "box_lat": "36.98030054",
        "box_long": "127.9149623"
    },
    {
        "box_address_city": "충청북도",
        "box_address_town": "충주시",
        "box_address": "충청북도 충주시 신립로 74 (칠금동)",
        "box_lat": "36.98655044",
        "box_long": "127.9220776"
    },
    {
        "box_address_city": "충청북도",
        "box_address_town": "충주시",
        "box_address": "충청북도 충주시 계명대로 233 (연수동)",
        "box_lat": "36.98277603",
        "box_long": "127.9406046"
    },
    {
        "box_address_city": "충청북도",
        "box_address_town": "충주시",
        "box_address": "충청북도 충주시 봉계1길 52 (칠금동)",
        "box_lat": "36.981067",
        "box_long": "127.9156242"
    },
    {
        "box_address_city": "충청북도",
        "box_address_town": "충주시",
        "box_address": "충청북도 충주시 탄금대로 138 (봉방동)",
        "box_lat": "36.98000345",
        "box_long": "127.9153783"
    },
    {
        "box_address_city": "충청북도",
        "box_address_town": "충주시",
        "box_address": "충청북도 충주시 국원대로 179 (금릉동)",
        "box_lat": "36.98770762",
        "box_long": "127.9280303"
    },
    {
        "box_address_city": "충청북도",
        "box_address_town": "충주시",
        "box_address": "충청북도 충주시 중앙로 101-10 (성내동)",
        "box_lat": "36.97293226",
        "box_long": "127.9347604"
    },
    {
        "box_address_city": "충청북도",
        "box_address_town": "충주시",
        "box_address": "충청북도 충주시 봉계1길 60 (칠금동)",
        "box_lat": "36.9815629",
        "box_long": "127.9159944"
    },
    {
        "box_address_city": "충청북도",
        "box_address_town": "충주시",
        "box_address": "충청북도 충주시 예성로 392 (연수동)",
        "box_lat": "36.99119874",
        "box_long": "127.9343744"
    },
    {
        "box_address_city": "충청북도",
        "box_address_town": "충주시",
        "box_address": "충청북도 충주시 호암수청2로 15, 1층 104호 (호암동)",
        "box_lat": "36.9566147",
        "box_long": "127.9238593"
    },
    {
        "box_address_city": "충청북도",
        "box_address_town": "충주시",
        "box_address": "충청북도 충주시 사천개1길 2, 청보테라스타워 1층 108,109호 (호암동)",
        "box_lat": "36.95579245",
        "box_long": "127.9356281"
    },
    {
        "box_address_city": "충청북도",
        "box_address_town": "충주시",
        "box_address": "충청북도 충주시 호암수청1길 5, 1층 2호 (호암동)",
        "box_lat": "36.95610026",
        "box_long": "127.9226358"
    },
    {
        "box_address_city": "경상북도",
        "box_address_town": "영주시",
        "box_address": "경상북도 영주시 지천로50번길 38 (현대2차APT내)",
        "box_lat": "36.805093000",
        "box_long": "128.622142000"
    },
    {
        "box_address_city": "경상북도",
        "box_address_town": "영주시",
        "box_address": "경상북도 영주시 지천로50번길 5 (현대1차APT내)",
        "box_lat": "36.805761000",
        "box_long": "128.620408000"
    },
    {
        "box_address_city": "경상북도",
        "box_address_town": "영주시",
        "box_address": "경상북도 영주시 지천로 46 (현대1차APT내)",
        "box_lat": "36.804312000",
        "box_long": "128.619629000"
    },
    {
        "box_address_city": "경상북도",
        "box_address_town": "영주시",
        "box_address": "경상북도 영주시 구성로273번길 40-6",
        "box_lat": "36.818075000",
        "box_long": "128.625619000"
    },
    {
        "box_address_city": "경상북도",
        "box_address_town": "영주시",
        "box_address": "경상북도 영주시 고현로 204",
        "box_lat": "36.846076000",
        "box_long": "128.611413000"
    },
    {
        "box_address_city": "경상북도",
        "box_address_town": "영주시",
        "box_address": "경상북도 영주시 반지미로 364",
        "box_lat": "36.830112000",
        "box_long": "128.604930000"
    },
    {
        "box_address_city": "경상북도",
        "box_address_town": "영주시",
        "box_address": "경상북도 영주시 신재로12번길 37",
        "box_lat": "36.832925000",
        "box_long": "128.611238000"
    },
    {
        "box_address_city": "경상북도",
        "box_address_town": "영주시",
        "box_address": "경상북도 영주시 신재로12번길 67",
        "box_lat": "36.834351000",
        "box_long": "128.610774000"
    },
    {
        "box_address_city": "경상북도",
        "box_address_town": "영주시",
        "box_address": "경상북도 영주시 창진로 63",
        "box_lat": "36.835637000",
        "box_long": "128.610367000"
    },
    {
        "box_address_city": "경상북도",
        "box_address_town": "영주시",
        "box_address": "경상북도 영주시 창진로 87",
        "box_lat": "36.836030000",
        "box_long": "128.607411000"
    },
    {
        "box_address_city": "경상북도",
        "box_address_town": "영주시",
        "box_address": "경상북도 영주시 신재로12번길 56",
        "box_lat": "36.833674000",
        "box_long": "128.611933000"
    },
    {
        "box_address_city": "경상북도",
        "box_address_town": "영주시",
        "box_address": "경상북도 영주시 가흥로 345-27",
        "box_lat": "36.826620000",
        "box_long": "128.609691000"
    },
    {
        "box_address_city": "경상북도",
        "box_address_town": "영주시",
        "box_address": "경상북도 영주시 대학로 324",
        "box_lat": "36.823690000",
        "box_long": "128.606034000"
    },
    {
        "box_address_city": "경상북도",
        "box_address_town": "영주시",
        "box_address": "경상북도 영주시 남간로71번길 10",
        "box_lat": "36.818449000",
        "box_long": "128.636042000"
    },
    {
        "box_address_city": "서울특별시",
        "box_address_town": "성북구",
        "box_address": "서울특별시 성북구 오패산로 99",
        "box_lat": "37.6107514",
        "box_long": "127.0351644"
    },
    {
        "box_address_city": "경상북도",
        "box_address_town": "영주시",
        "box_address": "경상북도 영주시 지천로115번길 58",
        "box_lat": "36.811688000",
        "box_long": "128.616351000"
    },
    {
        "box_address_city": "경상북도",
        "box_address_town": "영주시",
        "box_address": "경상북도 영주시 지천로 143 (2층)",
        "box_lat": "36.813114000",
        "box_long": "128.618687000"
    },
    {
        "box_address_city": "경상북도",
        "box_address_town": "영주시",
        "box_address": "경상북도 영주시 대동로134번길 11-10",
        "box_lat": "36.813578000",
        "box_long": "128.617354000"
    },
    {
        "box_address_city": "경상북도",
        "box_address_town": "영주시",
        "box_address": "경상북도 영주시 대학로35번길 21",
        "box_lat": "36.808652000",
        "box_long": "128.621333000"
    },
    {
        "box_address_city": "경상북도",
        "box_address_town": "영주시",
        "box_address": "경상북도 영주시 목민로 77",
        "box_lat": "36.810241000",
        "box_long": "128.616406000"
    },
    {
        "box_address_city": "경상북도",
        "box_address_town": "영주시",
        "box_address": "경상북도 영주시 지천로107번길 16",
        "box_lat": "36.810174000",
        "box_long": "128.618308000"
    },
    {
        "box_address_city": "경상북도",
        "box_address_town": "영주시",
        "box_address": "경상북도 영주시 지천로55번길 54",
        "box_lat": "36.806519000",
        "box_long": "128.618529000"
    },
    {
        "box_address_city": "경상북도",
        "box_address_town": "영주시",
        "box_address": "경상북도 영주시 꽃동산로21번길 20-11",
        "box_lat": "36.812529000",
        "box_long": "128.620488000"
    },
    {
        "box_address_city": "경상북도",
        "box_address_town": "영주시",
        "box_address": "경상북도 영주시 대학로21번길 36",
        "box_lat": "36.808384000",
        "box_long": "128.622759000"
    },
    {
        "box_address_city": "경상북도",
        "box_address_town": "영주시",
        "box_address": "경상북도 영주시 지천로55번길 17-8",
        "box_lat": "36.804999000",
        "box_long": "128.618177000"
    },
    {
        "box_address_city": "경상북도",
        "box_address_town": "영주시",
        "box_address": "경상북도 영주시 선비로 64",
        "box_lat": "36.811077000",
        "box_long": "128.624878000"
    },
    {
        "box_address_city": "경상북도",
        "box_address_town": "영주시",
        "box_address": "경상북도 영주시 목민로67번길 5",
        "box_lat": "36.809620000",
        "box_long": "128.617349000"
    },
    {
        "box_address_city": "경상북도",
        "box_address_town": "영주시",
        "box_address": "경상북도 영주시 시청로 28-2",
        "box_lat": "36.809004000",
        "box_long": "128.624716000"
    },
    {
        "box_address_city": "경상북도",
        "box_address_town": "영주시",
        "box_address": "경상북도 영주시 선비로119번길 19-1",
        "box_lat": "36.815237000",
        "box_long": "128.621136000"
    },
    {
        "box_address_city": "경상북도",
        "box_address_town": "영주시",
        "box_address": "경상북도 영주시 원당로223번길 57",
        "box_lat": "36.831814000",
        "box_long": "128.633206000"
    },
    {
        "box_address_city": "경상북도",
        "box_address_town": "영주시",
        "box_address": "경상북도 영주시 향교길 42-11",
        "box_lat": "36.829625000",
        "box_long": "128.631605000"
    },
    {
        "box_address_city": "경상북도",
        "box_address_town": "영주시",
        "box_address": "경상북도 영주시 명륜길28번길 7",
        "box_lat": "36.829145000",
        "box_long": "128.628309000"
    },
    {
        "box_address_city": "경상북도",
        "box_address_town": "영주시",
        "box_address": "경상북도 영주시 원당로427번길 137",
        "box_lat": "36.845802000",
        "box_long": "128.654639000"
    },
    {
        "box_address_city": "경상북도",
        "box_address_town": "영주시",
        "box_address": "경상북도 영주시 웃무리로13번길 15",
        "box_lat": "36.827155000",
        "box_long": "128.638378000"
    },
    {
        "box_address_city": "경상북도",
        "box_address_town": "영주시",
        "box_address": "경상북도 영주시 향교길 149",
        "box_lat": "36.833543000",
        "box_long": "128.632131000"
    },
    {
        "box_address_city": "경상북도",
        "box_address_town": "영주시",
        "box_address": "경상북도 영주시 원당로247번길 119",
        "box_lat": "36.835440000",
        "box_long": "128.633194000"
    },
    {
        "box_address_city": "경상북도",
        "box_address_town": "영주시",
        "box_address": "경상북도 영주시 향교길 108-23",
        "box_lat": "36.832414000",
        "box_long": "128.632371000"
    },
    {
        "box_address_city": "경상북도",
        "box_address_town": "영주시",
        "box_address": "경상북도 영주시 원당로225번길 67",
        "box_lat": "36.832448000",
        "box_long": "128.634926000"
    },
    {
        "box_address_city": "경상북도",
        "box_address_town": "영주시",
        "box_address": "경상북도 영주시 웃무리로 26",
        "box_lat": "36.826297000",
        "box_long": "128.637650000"
    },
    {
        "box_address_city": "경상북도",
        "box_address_town": "영주시",
        "box_address": "경상북도 영주시 원당로223번길 42-47",
        "box_lat": "36.832798000",
        "box_long": "128.634026000"
    },
    {
        "box_address_city": "경상북도",
        "box_address_town": "영주시",
        "box_address": "경상북도 영주시 원당로275번길 42",
        "box_lat": "36.834709000",
        "box_long": "128.638842000"
    },
    {
        "box_address_city": "경상북도",
        "box_address_town": "영주시",
        "box_address": "경상북도 영주시 원당로211번길 7",
        "box_lat": "36.829263000",
        "box_long": "128.633730000"
    },
    {
        "box_address_city": "경상북도",
        "box_address_town": "영주시",
        "box_address": "경상북도 영주시 번영로24번길 17-1",
        "box_lat": "36.814576000",
        "box_long": "128.629308000"
    },
    {
        "box_address_city": "경상북도",
        "box_address_town": "영주시",
        "box_address": "경상북도 영주시 남간로 50",
        "box_lat": "36.818693000",
        "box_long": "128.633244000"
    },
    {
        "box_address_city": "경상북도",
        "box_address_town": "영주시",
        "box_address": "경상북도 영주시 남간로21번길 23-12",
        "box_lat": "36.819977000",
        "box_long": "128.629728000"
    },
    {
        "box_address_city": "경상북도",
        "box_address_town": "영주시",
        "box_address": "경상북도 영주시 남간로 38-16",
        "box_lat": "36.817886000",
        "box_long": "128.631443000"
    },
    {
        "box_address_city": "경상북도",
        "box_address_town": "영주시",
        "box_address": "경상북도 영주시 소백로1173번길 59-3",
        "box_lat": "36.811381000",
        "box_long": "128.502654000"
    },
    {
        "box_address_city": "경상북도",
        "box_address_town": "영주시",
        "box_address": "경상북도 영주시 소백로1036번길 108",
        "box_lat": "36.802837000",
        "box_long": "128.512944000"
    },
    {
        "box_address_city": "경상북도",
        "box_address_town": "영주시",
        "box_address": "경상북도 영주시 테라피로 589",
        "box_lat": "36.872904000",
        "box_long": "128.509125000"
    },
    {
        "box_address_city": "경상북도",
        "box_address_town": "영주시",
        "box_address": "경상북도 영주시 하촌로48번길 25",
        "box_lat": "36.785798000",
        "box_long": "128.495035000"
    },
    {
        "box_address_city": "경상북도",
        "box_address_town": "영주시",
        "box_address": "경상북도 영주시 하촌로 163",
        "box_lat": "36.776874000",
        "box_long": "128.497280000"
    },
    {
        "box_address_city": "경상북도",
        "box_address_town": "영주시",
        "box_address": "경상북도 영주시 소백로 680",
        "box_lat": "36.768639000",
        "box_long": "128.501655000"
    },
    {
        "box_address_city": "서울특별시",
        "box_address_town": "성북구",
        "box_address": "서울특별시 성북구 낙산길 255",
        "box_lat": "37.58277838",
        "box_long": "127.0156254"
    },
    {
        "box_address_city": "경상북도",
        "box_address_town": "영주시",
        "box_address": "경상북도 영주시 소백로1411번길 32-1",
        "box_lat": "36.828919000",
        "box_long": "128.511880000"
    },
    {
        "box_address_city": "경상북도",
        "box_address_town": "영주시",
        "box_address": "경상북도 영주시 구구로 105번길 19-2",
        "box_lat": "36.903884000",
        "box_long": "128.610746000"
    },
    {
        "box_address_city": "경상북도",
        "box_address_town": "영주시",
        "box_address": "경상북도 영주시 구구로 240",
        "box_lat": "36.906971000",
        "box_long": "128.624087000"
    },
    {
        "box_address_city": "경상북도",
        "box_address_town": "영주시",
        "box_address": "경상북도 영주시 보옥로 338",
        "box_lat": "36.950128000",
        "box_long": "128.621599000"
    },
    {
        "box_address_city": "경상북도",
        "box_address_town": "영주시",
        "box_address": "경상북도 영주시 영단로70번길 8",
        "box_lat": "36.960341000",
        "box_long": "128.620180000"
    },
    {
        "box_address_city": "경상북도",
        "box_address_town": "영주시",
        "box_address": "경상북도 영주시 단곡로 21번길 18",
        "box_lat": "36.949680000",
        "box_long": "128.598382000"
    },
    {
        "box_address_city": "경상북도",
        "box_address_town": "영주시",
        "box_address": "경상북도 영주시 단산로559번길 6",
        "box_lat": "36.925241000",
        "box_long": "128.608919000"
    },
    {
        "box_address_city": "경상북도",
        "box_address_town": "영주시",
        "box_address": "경상북도 영주시 단산로285번길 149-10",
        "box_lat": "36.912854000",
        "box_long": "128.593810000"
    },
    {
        "box_address_city": "경상북도",
        "box_address_town": "영주시",
        "box_address": "경상북도 영주시 의상로 365-6",
        "box_lat": "36.867614000",
        "box_long": "128.636365000"
    },
    {
        "box_address_city": "경상북도",
        "box_address_town": "영주시",
        "box_address": "경상북도 영주시 조와로91번길 313-14",
        "box_lat": "36.862093000",
        "box_long": "128.621799000"
    },
    {
        "box_address_city": "경상북도",
        "box_address_town": "영주시",
        "box_address": "경상북도 영주시 의상로35번길 21",
        "box_lat": "36.840569000",
        "box_long": "128.640327000"
    },
    {
        "box_address_city": "경상북도",
        "box_address_town": "영주시",
        "box_address": "경상북도 영주시 문평로719번길 3-16",
        "box_lat": "36.719692000",
        "box_long": "128.649376000"
    },
    {
        "box_address_city": "경상북도",
        "box_address_town": "영주시",
        "box_address": "경상북도 영주시 문평로961번길 99",
        "box_lat": "36.738053000",
        "box_long": "128.653123000"
    },
    {
        "box_address_city": "경상북도",
        "box_address_town": "영주시",
        "box_address": "경상북도 영주시 문평로351번길 188",
        "box_lat": "36.738421000",
        "box_long": "128.648236000"
    },
    {
        "box_address_city": "경상북도",
        "box_address_town": "영주시",
        "box_address": "경상북도 영주시 천상로500번길 130",
        "box_lat": "36.788066000",
        "box_long": "128.730179000"
    },
    {
        "box_address_city": "경상북도",
        "box_address_town": "영주시",
        "box_address": "경상북도 영주시 노좌로29번길 24",
        "box_lat": "36.795739000",
        "box_long": "128.498813000"
    },
    {
        "box_address_city": "경상북도",
        "box_address_town": "영주시",
        "box_address": "경상북도 영주시 노좌로45번길 42-10",
        "box_lat": "36.799364000",
        "box_long": "128.497488000"
    },
    {
        "box_address_city": "경상북도",
        "box_address_town": "영주시",
        "box_address": "경상북도 영주시 노좌로29번길 373",
        "box_lat": "36.805701000",
        "box_long": "128.481627000"
    },
    {
        "box_address_city": "경상북도",
        "box_address_town": "영주시",
        "box_address": "경상북도 영주시 소백로1623번길 32-11",
        "box_lat": "36.846988000",
        "box_long": "128.522833000"
    },
    {
        "box_address_city": "경상북도",
        "box_address_town": "영주시",
        "box_address": "경상북도 영주시 소백로1623번길 263",
        "box_lat": "36.841202000",
        "box_long": "128.499139000"
    },
    {
        "box_address_city": "경상북도",
        "box_address_town": "영주시",
        "box_address": "경상북도 영주시 테라피로281번길 6",
        "box_lat": "36.861917000",
        "box_long": "128.479244000"
    },
    {
        "box_address_city": "경상북도",
        "box_address_town": "영주시",
        "box_address": "경상북도 영주시 테라피로 453",
        "box_lat": "36.867812000",
        "box_long": "128.496157000"
    },
    {
        "box_address_city": "경상북도",
        "box_address_town": "영주시",
        "box_address": "경상북도 영주시 테라피로460번길 46-1",
        "box_lat": "36.864569000",
        "box_long": "128.498187000"
    },
    {
        "box_address_city": "경상북도",
        "box_address_town": "영주시",
        "box_address": "경상북도 영주시 신재로 921",
        "box_lat": "36.865405000",
        "box_long": "128.522525000"
    },
    {
        "box_address_city": "경상북도",
        "box_address_town": "영주시",
        "box_address": "경상북도 영주시 오현로59번길 11",
        "box_lat": "36.863292000",
        "box_long": "128.522912000"
    },
    {
        "box_address_city": "경상북도",
        "box_address_town": "영주시",
        "box_address": "경상북도 영주시 신재로939번길 110",
        "box_lat": "36.859890000",
        "box_long": "128.512459000"
    },
    {
        "box_address_city": "경상북도",
        "box_address_town": "영주시",
        "box_address": "경상북도 영주시 오현로59번길 90",
        "box_lat": "36.858303000",
        "box_long": "128.517579000"
    },
    {
        "box_address_city": "경상북도",
        "box_address_town": "영주시",
        "box_address": "경상북도 영주시 오현로59번길 140",
        "box_lat": "36.855325000",
        "box_long": "128.514096000"
    },
    {
        "box_address_city": "경상북도",
        "box_address_town": "영주시",
        "box_address": "경상북도 영주시 죽령로1284번길70",
        "box_lat": "36.888898000",
        "box_long": "128.491342000"
    },
    {
        "box_address_city": "경상북도",
        "box_address_town": "영주시",
        "box_address": "경상북도 영주시 죽령로1356",
        "box_lat": "36.885945000",
        "box_long": "128.481803000"
    },
    {
        "box_address_city": "경상북도",
        "box_address_town": "영주시",
        "box_address": "경상북도 영주시 죽령로1350번길40",
        "box_lat": "36.888571000",
        "box_long": "128.483759000"
    },
    {
        "box_address_city": "경상북도",
        "box_address_town": "영주시",
        "box_address": "경상북도 영주시 죽령로1513번길64",
        "box_lat": "36.895812000",
        "box_long": "128.464637000"
    },
    {
        "box_address_city": "경상북도",
        "box_address_town": "영주시",
        "box_address": "경상북도 영주시 전구로234",
        "box_lat": "36.873601000",
        "box_long": "128.483732000"
    },
    {
        "box_address_city": "경상북도",
        "box_address_town": "영주시",
        "box_address": "경상북도 영주시 옥동로152번길12",
        "box_lat": "36.873279000",
        "box_long": "128.477589000"
    },
    {
        "box_address_city": "경상북도",
        "box_address_town": "영주시",
        "box_address": "경상북도 영주시 평은로962번길 13",
        "box_lat": "36.762585000",
        "box_long": "128.697656000"
    },
    {
        "box_address_city": "경상북도",
        "box_address_town": "영주시",
        "box_address": "경상북도 영주시 신평로 41",
        "box_lat": "36.758271000",
        "box_long": "128.689259000"
    },
    {
        "box_address_city": "경상북도",
        "box_address_town": "영주시",
        "box_address": "경상북도 영주시 강동로298번길 144",
        "box_lat": "36.702626000",
        "box_long": "128.684507000"
    },
    {
        "box_address_city": "경상북도",
        "box_address_town": "영주시",
        "box_address": "경상북도 영주시 강동로410번길 127",
        "box_lat": "36.713230000",
        "box_long": "128.697497000"
    },
    {
        "box_address_city": "경상북도",
        "box_address_town": "영주시",
        "box_address": "경상북도 영주시 북평로1071번길 17",
        "box_lat": "36.702326000",
        "box_long": "128.708539000"
    },
    {
        "box_address_city": "경상북도",
        "box_address_town": "영주시",
        "box_address": "경상북도 영주시 녹지로119번길 9",
        "box_lat": "36.702600000",
        "box_long": "128.725981000"
    },
    {
        "box_address_city": "경상북도",
        "box_address_town": "영주시",
        "box_address": "경상북도 영주시 예봉로23번길 48-6",
        "box_lat": "36.723101000",
        "box_long": "128.717417000"
    },
    {
        "box_address_city": "경상북도",
        "box_address_town": "영주시",
        "box_address": "경상북도 영주시 경북대로2229번길 16-12",
        "box_lat": "36.717148000",
        "box_long": "128.714489000"
    },
    {
        "box_address_city": "경상북도",
        "box_address_town": "영주시",
        "box_address": "경상북도 영주시 예봉로418번길 9",
        "box_lat": "36.759617000",
        "box_long": "128.730568000"
    },
    {
        "box_address_city": "경상북도",
        "box_address_town": "영주시",
        "box_address": "경상북도 영주시 평은로76번길 15-1",
        "box_lat": "36.741236000",
        "box_long": "128.714712000"
    },
    {
        "box_address_city": "경상북도",
        "box_address_town": "영주시",
        "box_address": "경상북도 영주시 천상로 515",
        "box_lat": "36.789107000",
        "box_long": "128.719793000"
    },
    {
        "box_address_city": "경상북도",
        "box_address_town": "영주시",
        "box_address": "경상북도 영주시 천상로 272",
        "box_lat": "36.774379000",
        "box_long": "128.714244000"
    },
    {
        "box_address_city": "경상북도",
        "box_address_town": "영주시",
        "box_address": "경상북도 영주시 동양대로20-15, 2층",
        "box_lat": "36.872269000",
        "box_long": "128.528452000"
    },
    {
        "box_address_city": "경상북도",
        "box_address_town": "영주시",
        "box_address": "경상북도 영주시 동양대로16번길8",
        "box_lat": "36.872114000",
        "box_long": "128.527892000"
    },
    {
        "box_address_city": "경상북도",
        "box_address_town": "영주시",
        "box_address": "경상북도 영주시 안풍로254번길60",
        "box_lat": "36.872448000",
        "box_long": "128.545015000"
    },
    {
        "box_address_city": "경상북도",
        "box_address_town": "영주시",
        "box_address": "경상북도 영주시 소백로2273번길106",
        "box_lat": "36.901852000",
        "box_long": "128.541816000"
    },
    {
        "box_address_city": "경상북도",
        "box_address_town": "영주시",
        "box_address": "경상북도 영주시 소백로2235번길70",
        "box_lat": "36.895941000",
        "box_long": "128.539329000"
    },
    {
        "box_address_city": "경상북도",
        "box_address_town": "영주시",
        "box_address": "경상북도 영주시 삼가로434-1",
        "box_lat": "36.922145000",
        "box_long": "128.507061000"
    },
    {
        "box_address_city": "경상북도",
        "box_address_town": "영주시",
        "box_address": "경상북도 영주시 무릉길42번길9",
        "box_lat": "36.884798000",
        "box_long": "128.519862000"
    },
    {
        "box_address_city": "경상북도",
        "box_address_town": "영주시",
        "box_address": "경상북도 영주시 금계로217",
        "box_lat": "36.891419000",
        "box_long": "128.527108000"
    },
    {
        "box_address_city": "경상북도",
        "box_address_town": "영주시",
        "box_address": "경상북도 영주시 금계로64번길45",
        "box_lat": "36.881456000",
        "box_long": "128.527769000"
    },
    {
        "box_address_city": "경상북도",
        "box_address_town": "영주시",
        "box_address": "경상북도 영주시 동양대로129번길162",
        "box_lat": "36.884731000",
        "box_long": "128.527329000"
    },
    {
        "box_address_city": "경상북도",
        "box_address_town": "영주시",
        "box_address": "경상북도 영주시 동성로94번길20-14",
        "box_lat": "36.872503000",
        "box_long": "128.526848000"
    },
    {
        "box_address_city": "경상북도",
        "box_address_town": "영주시",
        "box_address": "경상북도 영주시 인삼로4-10",
        "box_lat": "36.873545000",
        "box_long": "128.523421000"
    },
    {
        "box_address_city": "경상북도",
        "box_address_town": "영주시",
        "box_address": "경상북도 영주시 인삼로10번길38-1",
        "box_lat": "36.873433000",
        "box_long": "128.521608000"
    },
    {
        "box_address_city": "경상북도",
        "box_address_town": "영주시",
        "box_address": "경상북도 영주시 금계로39-4",
        "box_lat": "36.876097000",
        "box_long": "128.525517000"
    },
    {
        "box_address_city": "경상북도",
        "box_address_town": "영주시",
        "box_address": "경상북도 영주시 백리길138번길30",
        "box_lat": "36.887057000",
        "box_long": "128.507780000"
    },
    {
        "box_address_city": "경상북도",
        "box_address_town": "영주시",
        "box_address": "경상북도 영주시 전구로30",
        "box_lat": "36.876175000",
        "box_long": "128.505083000"
    },
    {
        "box_address_city": "경상북도",
        "box_address_town": "영주시",
        "box_address": "경상북도 영주시 죽령로1182번길33",
        "box_lat": "36.882126000",
        "box_long": "128.499755000"
    },
    {
        "box_address_city": "경상북도",
        "box_address_town": "영주시",
        "box_address": "경상북도 영주시 구성로 256",
        "box_lat": "36.816237000",
        "box_long": "128.628065000"
    },
    {
        "box_address_city": "경상북도",
        "box_address_town": "영주시",
        "box_address": "경상북도 영주시 대학로 34",
        "box_lat": "36.809772000",
        "box_long": "128.620797000"
    },
    {
        "box_address_city": "경상북도",
        "box_address_town": "영주시",
        "box_address": "경상북도 영주시 구성로 376",
        "box_lat": "36.825070000",
        "box_long": "128.621656000"
    },
    {
        "box_address_city": "경상북도",
        "box_address_town": "영주시",
        "box_address": "경상북도 영주시 기주로122, 1층",
        "box_lat": "36.871441000",
        "box_long": "128.522686000"
    },
    {
        "box_address_city": "경상북도",
        "box_address_town": "영주시",
        "box_address": "경상북도 영주시 기주로124-2",
        "box_lat": "36.871904000",
        "box_long": "128.522575000"
    },
    {
        "box_address_city": "경상북도",
        "box_address_town": "영주시",
        "box_address": "경상북도 영주시 남원로70번길31-12",
        "box_lat": "36.868936000",
        "box_long": "128.526892000"
    },
    {
        "box_address_city": "경상북도",
        "box_address_town": "영주시",
        "box_address": "경상북도 영주시 남원로112",
        "box_lat": "36.868863000",
        "box_long": "128.522901000"
    },
    {
        "box_address_city": "경상북도",
        "box_address_town": "영주시",
        "box_address": "경상북도 영주시 인삼로33(CU지하)",
        "box_lat": "36.870846000",
        "box_long": "128.523410000"
    },
    {
        "box_address_city": "경상북도",
        "box_address_town": "영주시",
        "box_address": "경상북도 영주시 남원로152-21,2동109호(한솔맨션)",
        "box_lat": "36.871637000",
        "box_long": "128.519323000"
    },
    {
        "box_address_city": "경상북도",
        "box_address_town": "영주시",
        "box_address": "경상북도 영주시 남원로138",
        "box_lat": "36.870169000",
        "box_long": "128.520755000"
    },
    {
        "box_address_city": "경상북도",
        "box_address_town": "영주시",
        "box_address": "경상북도 영주시 기주로65번길5",
        "box_lat": "36.869001000",
        "box_long": "128.528355000"
    },
    {
        "box_address_city": "경상북도",
        "box_address_town": "영주시",
        "box_address": "경상북도 영주시 동성로70번길22",
        "box_lat": "36.871442000",
        "box_long": "128.529086000"
    },
    {
        "box_address_city": "경상북도",
        "box_address_town": "영주시",
        "box_address": "경상북도 영주시 기주로60번길33",
        "box_lat": "36.869273000",
        "box_long": "128.530784000"
    },
    {
        "box_address_city": "경상북도",
        "box_address_town": "영주시",
        "box_address": "경상북도 영주시 동양대로72번길8, 관리사무소2층",
        "box_lat": "36.875311000",
        "box_long": "128.532937000"
    },
    {
        "box_address_city": "경상북도",
        "box_address_town": "영주시",
        "box_address": "경상북도 영주시 소백로1941",
        "box_lat": "36.870426000",
        "box_long": "128.536625000"
    },
    {
        "box_address_city": "경상북도",
        "box_address_town": "영주시",
        "box_address": "경상북도 영주시 소백로1916번길69",
        "box_lat": "36.865465000",
        "box_long": "128.540365000"
    },
    {
        "box_address_city": "경상북도",
        "box_address_town": "영주시",
        "box_address": "경상북도 영주시 동양대로20-15, 1층",
        "box_lat": "36.872269000",
        "box_long": "128.528452000"
    },
    {
        "box_address_city": "경상북도",
        "box_address_town": "영주시",
        "box_address": "경상북도 영주시 중앙로 118",
        "box_lat": "36.825837000",
        "box_long": "128.625915000"
    },
    {
        "box_address_city": "경상북도",
        "box_address_town": "영주시",
        "box_address": "경상북도 영주시 구성로 354",
        "box_lat": "36.823665000",
        "box_long": "128.623115000"
    },
    {
        "box_address_city": "경상북도",
        "box_address_town": "영주시",
        "box_address": "경상북도 영주시 영주로 236",
        "box_lat": "36.825727000",
        "box_long": "128.625511000"
    },
    {
        "box_address_city": "경상북도",
        "box_address_town": "영주시",
        "box_address": "경상북도 영주시 구성로142번길 14",
        "box_lat": "36.805981000",
        "box_long": "128.629764000"
    },
    {
        "box_address_city": "경상북도",
        "box_address_town": "영주시",
        "box_address": "경상북도 영주시 구성로 333",
        "box_lat": "36.822144000",
        "box_long": "128.624348000"
    },
    {
        "box_address_city": "경상북도",
        "box_address_town": "영주시",
        "box_address": "경상북도 영주시 중앙로 91",
        "box_lat": "36.823787000",
        "box_long": "128.624913000"
    },
    {
        "box_address_city": "경상북도",
        "box_address_town": "영주시",
        "box_address": "경상북도 영주시 풍기읍 동양대로 3",
        "box_lat": "36.871716000",
        "box_long": "128.526766000"
    },
    {
        "box_address_city": "경상북도",
        "box_address_town": "영주시",
        "box_address": "경상북도 영주시 중앙로 70",
        "box_lat": "36.821976000",
        "box_long": "128.624114000"
    },
    {
        "box_address_city": "경상북도",
        "box_address_town": "영주시",
        "box_address": "경상북도 영주시 중앙로 95",
        "box_lat": "36.824126000",
        "box_long": "128.625124000"
    },
    {
        "box_address_city": "경상북도",
        "box_address_town": "영주시",
        "box_address": "경상북도 영주시 영주로231번길 20",
        "box_lat": "36.826759000",
        "box_long": "128.625539000"
    },
    {
        "box_address_city": "경상북도",
        "box_address_town": "영주시",
        "box_address": "경상북도 영주시 꽃동산로 30-1",
        "box_lat": "36.813142000",
        "box_long": "128.621202000"
    },
    {
        "box_address_city": "경상북도",
        "box_address_town": "영주시",
        "box_address": "경상북도 영주시 구성로 342",
        "box_lat": "36.822863000",
        "box_long": "128.624191000"
    },
    {
        "box_address_city": "경상북도",
        "box_address_town": "영주시",
        "box_address": "경상북도 영주시 구성로 355",
        "box_lat": "36.823548000",
        "box_long": "128.622604000"
    },
    {
        "box_address_city": "경상북도",
        "box_address_town": "영주시",
        "box_address": "경상북도 영주시 구성로 345",
        "box_lat": "36.822785000",
        "box_long": "128.623510000"
    },
    {
        "box_address_city": "경상북도",
        "box_address_town": "영주시",
        "box_address": "경상북도 영주시 구성로 340",
        "box_lat": "36.822705000",
        "box_long": "128.624191000"
    },
    {
        "box_address_city": "경상북도",
        "box_address_town": "영주시",
        "box_address": "경상북도 영주시 영주로231번길 2",
        "box_lat": "36.825998000",
        "box_long": "128.625251000"
    },
    {
        "box_address_city": "경상북도",
        "box_address_town": "영주시",
        "box_address": "경상북도 영주시 풍기읍 기주로 91",
        "box_lat": "36.870100000",
        "box_long": "128.525683000"
    },
    {
        "box_address_city": "경상북도",
        "box_address_town": "영주시",
        "box_address": "경상북도 영주시 번영로 133",
        "box_lat": "36.823608000",
        "box_long": "128.626372000"
    },
    {
        "box_address_city": "경상북도",
        "box_address_town": "영주시",
        "box_address": "경상북도 영주시 구성로 377",
        "box_lat": "36.824867000",
        "box_long": "128.621031000"
    },
    {
        "box_address_city": "경상북도",
        "box_address_town": "영주시",
        "box_address": "경상북도 영주시 대학로 323",
        "box_lat": "36.824439000",
        "box_long": "36.824439000"
    },
    {
        "box_address_city": "경상북도",
        "box_address_town": "영주시",
        "box_address": "경상북도 영주시 중앙로 135",
        "box_lat": "36.827456000",
        "box_long": "128.625963000"
    },
    {
        "box_address_city": "경상북도",
        "box_address_town": "영주시",
        "box_address": "경상북도 영주시 선비로 65",
        "box_lat": "36.810910000",
        "box_long": "128.623777000"
    },
    {
        "box_address_city": "경상북도",
        "box_address_town": "영주시",
        "box_address": "경상북도 영주시 대동로31번길 10",
        "box_lat": "36.816021000",
        "box_long": "128.606078000"
    },
    {
        "box_address_city": "경상북도",
        "box_address_town": "영주시",
        "box_address": "경상북도 영주시 풍기읍 기주로 102",
        "box_lat": "36.870679000",
        "box_long": "128.524865000"
    },
    {
        "box_address_city": "경상북도",
        "box_address_town": "영주시",
        "box_address": "경상북도 영주시 풍기읍 기주로 88",
        "box_lat": "36.870275000",
        "box_long": "128.526295000"
    },
    {
        "box_address_city": "경상북도",
        "box_address_town": "영주시",
        "box_address": "경상북도 영주시 봉화로 114-1",
        "box_lat": "36.841529000",
        "box_long": "128.665405000"
    },
    {
        "box_address_city": "경상북도",
        "box_address_town": "영주시",
        "box_address": "경상북도 영주시 구성로 371-1",
        "box_lat": "36.824693000",
        "box_long": "128.621305000"
    },
    {
        "box_address_city": "경상북도",
        "box_address_town": "영주시",
        "box_address": "경상북도 영주시 대학로 34",
        "box_lat": "36.809772000",
        "box_long": "128.620787000"
    },
    {
        "box_address_city": "경상북도",
        "box_address_town": "영주시",
        "box_address": "경상북도 영주시 중앙로 138-1",
        "box_lat": "36.827619000",
        "box_long": "128.626404000"
    },
    {
        "box_address_city": "경상북도",
        "box_address_town": "영주시",
        "box_address": "경상북도 영주시 구성로350번길 2",
        "box_lat": "36.823332000",
        "box_long": "128.623533000"
    },
    {
        "box_address_city": "경상북도",
        "box_address_town": "영주시",
        "box_address": "경상북도 영주시 봉현면 오현로 58",
        "box_lat": "36.863937000",
        "box_long": "36.863937000"
    },
    {
        "box_address_city": "경상북도",
        "box_address_town": "영주시",
        "box_address": "경상북도 영주시 번영로 176-1",
        "box_lat": "36.826768000",
        "box_long": "128.624867000"
    },
    {
        "box_address_city": "경상북도",
        "box_address_town": "영주시",
        "box_address": "경상북도 영주시 구성로378번길 9",
        "box_lat": "36.825545000",
        "box_long": "128.621353000"
    },
    {
        "box_address_city": "경상북도",
        "box_address_town": "영주시",
        "box_address": "경상북도 영주시 중앙로 126",
        "box_lat": "36.826551000",
        "box_long": "128.626043000"
    },
    {
        "box_address_city": "경상북도",
        "box_address_town": "영주시",
        "box_address": "경상북도 영주시 중앙로 122",
        "box_lat": "36.826063000",
        "box_long": "128.626041000"
    },
    {
        "box_address_city": "경상북도",
        "box_address_town": "영주시",
        "box_address": "경상북도 영주시 봉화로 2",
        "box_lat": "36.838692000",
        "box_long": "128.651897000"
    },
    {
        "box_address_city": "경상북도",
        "box_address_town": "영주시",
        "box_address": "경상북도 영주시 부석면 부석로 49",
        "box_lat": "36.979142000",
        "box_long": "128.654288000"
    },
    {
        "box_address_city": "경상북도",
        "box_address_town": "영주시",
        "box_address": "경상북도 영주시 광복로 87",
        "box_lat": "36.828212000",
        "box_long": "128.628277000"
    },
    {
        "box_address_city": "경상북도",
        "box_address_town": "영주시",
        "box_address": "경상북도 영주시 영주로280번길 21",
        "box_lat": "36.823971000",
        "box_long": "128.630289000"
    },
    {
        "box_address_city": "경상북도",
        "box_address_town": "영주시",
        "box_address": "경상북도 영주시 광복로 47",
        "box_lat": "36.828371000",
        "box_long": "128.623753000"
    },
    {
        "box_address_city": "경상북도",
        "box_address_town": "영주시",
        "box_address": "경상북도 영주시 선비로181번길 10",
        "box_lat": "36.820909000",
        "box_long": "128.618719000"
    },
    {
        "box_address_city": "경상북도",
        "box_address_town": "영주시",
        "box_address": "경상북도 영주시 남간로 18",
        "box_lat": "36.818630000",
        "box_long": "128.629869000"
    },
    {
        "box_address_city": "경상북도",
        "box_address_town": "영주시",
        "box_address": "경상북도 영주시 대학로 22",
        "box_lat": "36.810213000",
        "box_long": "128.621778000"
    },
    {
        "box_address_city": "경상북도",
        "box_address_town": "영주시",
        "box_address": "경상북도 영주시 구성로273번길 30",
        "box_lat": "36.818010000",
        "box_long": "128.625909000"
    },
    {
        "box_address_city": "경상북도",
        "box_address_town": "영주시",
        "box_address": "경상북도 영주시 원당로19번길 29",
        "box_lat": "36.818911000",
        "box_long": "128.617825000"
    },
    {
        "box_address_city": "경상북도",
        "box_address_town": "영주시",
        "box_address": "경상북도 영주시 가흥로 357",
        "box_lat": "36.829515000",
        "box_long": "128.611794000"
    },
    {
        "box_address_city": "경상북도",
        "box_address_town": "영주시",
        "box_address": "경상북도 영주시 원당로 76",
        "box_lat": "36.820484000",
        "box_long": "128.623113000"
    },
    {
        "box_address_city": "경상북도",
        "box_address_town": "영주시",
        "box_address": "경상북도 영주시 대학로 29",
        "box_lat": "36.809360000",
        "box_long": "128.621354000"
    },
    {
        "box_address_city": "경상북도",
        "box_address_town": "영주시",
        "box_address": "경상북도 영주시 영주로 203-2",
        "box_lat": "36.826348000",
        "box_long": "128.622163000"
    },
    {
        "box_address_city": "경상북도",
        "box_address_town": "영주시",
        "box_address": "경상북도 영주시 중앙로126번길 6",
        "box_lat": "36.826307000",
        "box_long": "128.626141000"
    },
    {
        "box_address_city": "경상북도",
        "box_address_town": "영주시",
        "box_address": "경상북도 영주시 지천로 166",
        "box_lat": "36.815156000",
        "box_long": "128.619433000"
    },
    {
        "box_address_city": "경상북도",
        "box_address_town": "영주시",
        "box_address": "경상북도 영주시 영주로 241",
        "box_lat": "36.825828000",
        "box_long": "128.626228000"
    },
    {
        "box_address_city": "경상북도",
        "box_address_town": "영주시",
        "box_address": "경상북도 영주시 대학로 325",
        "box_lat": "36.824681000",
        "box_long": "128.604773000"
    },
    {
        "box_address_city": "경상북도",
        "box_address_town": "영주시",
        "box_address": "경상북도 영주시 장수면 장안로 440-6",
        "box_lat": "36.812258000",
        "box_long": "128.574258000"
    },
    {
        "box_address_city": "경상북도",
        "box_address_town": "영주시",
        "box_address": "경상북도 영주시 안정면 용주로 925",
        "box_lat": "36.814198000",
        "box_long": "128.545089000"
    },
    {
        "box_address_city": "경상북도",
        "box_address_town": "영주시",
        "box_address": "경상북도 영주시 안정면 안정로 342",
        "box_lat": "36.868943000",
        "box_long": "128.579388000"
    },
    {
        "box_address_city": "경상북도",
        "box_address_town": "영주시",
        "box_address": "경상북도 영주시 봉현면 소백로 941",
        "box_lat": "36.791620000",
        "box_long": "128.500890000"
    },
    {
        "box_address_city": "경상북도",
        "box_address_town": "영주시",
        "box_address": "경상북도 영주시 순흥면 죽계로293번길 37",
        "box_lat": "36.930797000",
        "box_long": "128.554500000"
    },
    {
        "box_address_city": "경상북도",
        "box_address_town": "영주시",
        "box_address": "경상북도 영주시 단산면 구구로 22-17",
        "box_lat": "36.900275000",
        "box_long": "128.603169000"
    },
    {
        "box_address_city": "경상북도",
        "box_address_town": "영주시",
        "box_address": "경상북도 영주시 부석면 영부로106번길 9",
        "box_lat": "37.001738000",
        "box_long": "128.662949000"
    },
    {
        "box_address_city": "경상북도",
        "box_address_town": "영주시",
        "box_address": "경상북도 영주시 부석면 의상로 1322",
        "box_lat": "36.939519000",
        "box_long": "128.649552000"
    },
    {
        "box_address_city": "경상북도",
        "box_address_town": "영주시",
        "box_address": "경상북도 영주시 풍기읍 남원로 80",
        "box_lat": "36.867676000",
        "box_long": "128.526237000"
    },
    {
        "box_address_city": "경상북도",
        "box_address_town": "영주시",
        "box_address": "경상북도 영주시 이산면 이산로 201",
        "box_lat": "36.822002000",
        "box_long": "128.656295000"
    },
    {
        "box_address_city": "경상북도",
        "box_address_town": "영주시",
        "box_address": "경상북도 영주시 평은면 신평로 29",
        "box_lat": "36.758636000",
        "box_long": "128.688357000"
    },
    {
        "box_address_city": "경상북도",
        "box_address_town": "영주시",
        "box_address": "경상북도 영주시 문수면 문수로1363번길 35",
        "box_lat": "36.772206000",
        "box_long": "128.630416000"
    },
    {
        "box_address_city": "경상북도",
        "box_address_town": "영주시",
        "box_address": "경상북도 영주시 장수면 장수로 50",
        "box_lat": "36.775070000",
        "box_long": "128.578724000"
    },
    {
        "box_address_city": "경상북도",
        "box_address_town": "영주시",
        "box_address": "경상북도 영주시 안정면 신재로 537",
        "box_lat": "36.846056000",
        "box_long": "128.556762000"
    },
    {
        "box_address_city": "경상북도",
        "box_address_town": "영주시",
        "box_address": "경상북도 영주시 봉현면 오현로 27",
        "box_lat": "36.861486000",
        "box_long": "128.525101000"
    },
    {
        "box_address_city": "경상북도",
        "box_address_town": "영주시",
        "box_address": "경상북도 영주시 순흥면 순흥로 67",
        "box_lat": "36.915965000",
        "box_long": "128.575298000"
    },
    {
        "box_address_city": "경상북도",
        "box_address_town": "영주시",
        "box_address": "경상북도 영주시 단산면 옥대로 36",
        "box_lat": "36.951503000",
        "box_long": "128.619368000"
    },
    {
        "box_address_city": "경상북도",
        "box_address_town": "영주시",
        "box_address": "경상북도 영주시 시청로1번길 19",
        "box_lat": "36.806392000",
        "box_long": "128.621880000"
    },
    {
        "box_address_city": "경상북도",
        "box_address_town": "영주시",
        "box_address": "경상북도 영주시 영주로159번길 73",
        "box_lat": "36.828866800",
        "box_long": "128.616026000"
    },
    {
        "box_address_city": "경상북도",
        "box_address_town": "영주시",
        "box_address": "경상북도 영주시 풍기읍 남원로70번길 14",
        "box_lat": "36.867598700",
        "box_long": "128.527271580"
    },
    {
        "box_address_city": "경상북도",
        "box_address_town": "영주시",
        "box_address": "경상북도 영주시 이산면 이산로621번길 31",
        "box_lat": "36.835721000",
        "box_long": "128.696735000"
    },
    {
        "box_address_city": "경상북도",
        "box_address_town": "영주시",
        "box_address": "경상북도 영주시 평은면 신평로 29",
        "box_lat": "36.758559000",
        "box_long": "128.688378000"
    },
    {
        "box_address_city": "경상북도",
        "box_address_town": "영주시",
        "box_address": "경상북도 영주시 문수면 문수로1363번길 35",
        "box_lat": "36.772180000",
        "box_long": "128.630383960"
    },
    {
        "box_address_city": "경상북도",
        "box_address_town": "영주시",
        "box_address": "경상북도 영주시 장수면 장수로 50",
        "box_lat": "36.774983709",
        "box_long": "128.578745050"
    },
    {
        "box_address_city": "경상북도",
        "box_address_town": "영주시",
        "box_address": "경상북도 영주시 안정면 신재로 537",
        "box_lat": "36.845978887",
        "box_long": "128.556793920"
    },
    {
        "box_address_city": "경상북도",
        "box_address_town": "영주시",
        "box_address": "경상북도 영주시 봉현면 오현로 27",
        "box_lat": "36.861408764",
        "box_long": "128.525101100"
    },
    {
        "box_address_city": "경상북도",
        "box_address_town": "영주시",
        "box_address": "경상북도 영주시 순흥면 순흥로 67",
        "box_lat": "36.915914000",
        "box_long": "128.575277000"
    },
    {
        "box_address_city": "경상북도",
        "box_address_town": "영주시",
        "box_address": "경상북도 영주시 단산면 옥대로 32",
        "box_lat": "36.951165000",
        "box_long": "128.618818000"
    },
    {
        "box_address_city": "경상북도",
        "box_address_town": "영주시",
        "box_address": "경상북도 영주시 부석면 부석로 49",
        "box_lat": "36.979125000",
        "box_long": "128.654235000"
    },
    {
        "box_address_city": "경상북도",
        "box_address_town": "영주시",
        "box_address": "경상북도 영주시 이산면 내림로 15",
        "box_lat": "36.800330000",
        "box_long": "128.692464000"
    },
    {
        "box_address_city": "경상북도",
        "box_address_town": "영주시",
        "box_address": "경상북도 영주시 평은면 북평로 1099",
        "box_lat": "36.702215000",
        "box_long": "128.711863000"
    },
    {
        "box_address_city": "경상북도",
        "box_address_town": "영주시",
        "box_address": "경상북도 영주시 문수면 조제로 59",
        "box_lat": "36.718712000",
        "box_long": "128.601084000"
    },
    {
        "box_address_city": "경상북도",
        "box_address_town": "영주시",
        "box_address": "경상북도 영주시 장수면 옥계로 510",
        "box_lat": "36.737502000",
        "box_long": "128.574900000"
    },
    {
        "box_address_city": "경상북도",
        "box_address_town": "영주시",
        "box_address": "경상북도 영주시 장수면 용주로 483",
        "box_lat": "36.781813000",
        "box_long": "128.531734000"
    },
    {
        "box_address_city": "경기도",
        "box_address_town": "연천군",
        "box_address": "경기도 연천군 전곡읍 은대성로 95",
        "box_lat": "38.02341039",
        "box_long": "127.0605854"
    },
    {
        "box_address_city": "서울특별시",
        "box_address_town": "서초구",
        "box_address": "서울특별시 서초구 나루터로 38 (잠원동)",
        "box_lat": "37.5149681",
        "box_long": "127.0139821"
    },
    {
        "box_address_city": "서울특별시",
        "box_address_town": "서초구",
        "box_address": "서울특별시 서초구 신반포로 23 (반포동)",
        "box_lat": "37.5017471",
        "box_long": "126.9872318"
    },
    {
        "box_address_city": "서울특별시",
        "box_address_town": "서초구",
        "box_address": "서울특별시 서초구 사평대로 273 (반포동)",
        "box_lat": "37.5050940",
        "box_long": "127.0133786"
    },
    {
        "box_address_city": "서울특별시",
        "box_address_town": "서초구",
        "box_address": "서울특별시 서초구 신반포로15길 16(반포동)",
        "box_lat": "37.5045854",
        "box_long": "126.9944717"
    },
    {
        "box_address_city": "서울특별시",
        "box_address_town": "서초구",
        "box_address": "서울특별시 서초구 신반포로23길 78, 지하주차장(반포동, 반포3동주민센터)",
        "box_lat": "37.5120480",
        "box_long": "127.0056087"
    },
    {
        "box_address_city": "서울특별시",
        "box_address_town": "서초구",
        "box_address": "서울특별시 서초구 사평대로28길 70 (반포동)",
        "box_lat": "37.4974859",
        "box_long": "127.0003286"
    },
    {
        "box_address_city": "서울특별시",
        "box_address_town": "서초구",
        "box_address": "서울특별시 서초구 동광로19길 38 (방배동)",
        "box_lat": "37.4941487",
        "box_long": "126.9888470"
    },
    {
        "box_address_city": "서울특별시",
        "box_address_town": "서초구",
        "box_address": "서울특별시 서초구 효령로29길 43 (방배동)",
        "box_lat": "37.4833617",
        "box_long": "126.9945139"
    },
    {
        "box_address_city": "서울특별시",
        "box_address_town": "서초구",
        "box_address": "서울특별시 서초구 청두곶길 36 (방배동)",
        "box_lat": "37.4797726",
        "box_long": "126.9855596"
    },
    {
        "box_address_city": "서울특별시",
        "box_address_town": "서초구",
        "box_address": "서울특별시 서초구 방배로 40 (방배동)",
        "box_lat": "37.4784388",
        "box_long": "126.9999966"
    },
    {
        "box_address_city": "서울특별시",
        "box_address_town": "서초구",
        "box_address": "서울특별시 서초구 방배로 173 (방배동)",
        "box_lat": "37.4890076",
        "box_long": "126.9922424"
    },
    {
        "box_address_city": "서울특별시",
        "box_address_town": "서초구",
        "box_address": "서울특별시 서초구 바우뫼로 41 (우면동)",
        "box_lat": "37.4716711",
        "box_long": "127.0266688"
    },
    {
        "box_address_city": "서울특별시",
        "box_address_town": "서초구",
        "box_address": "서울특별시 서초구 강남대로12길 44 (양재동)",
        "box_lat": "37.4706450",
        "box_long": "127.0412829"
    },
    {
        "box_address_city": "서울특별시",
        "box_address_town": "서초구",
        "box_address": "서울특별시 서초구 청계산로15길 77, 내곡열린문화센터(신원동)",
        "box_lat": "37.4493583",
        "box_long": "127.0583143"
    },
    {
        "box_address_city": "서울특별시",
        "box_address_town": "서초구",
        "box_address": "서울특별시 서초구 강남대로30길 73-7(양재동)",
        "box_lat": "37.4830200",
        "box_long": "127.0408160"
    },
    {
        "box_address_city": "서울특별시",
        "box_address_town": "서초구",
        "box_address": "서울특별시 서초구 방배천로 48 (방배동)",
        "box_lat": "37.4807674",
        "box_long": "126.9827869"
    },
    {
        "box_address_city": "서울특별시",
        "box_address_town": "서초구",
        "box_address": "서울특별시 서초구 서초대로54길 45(서초동)",
        "box_lat": "37.4923243",
        "box_long": "127.0168110"
    },
    {
        "box_address_city": "서울특별시",
        "box_address_town": "서초구",
        "box_address": "서울특별시 서초구 바우뫼로 43 바우뫼복지문화회관(우면동)",
        "box_lat": "37.4717422",
        "box_long": "127.0269012"
    },
    {
        "box_address_city": "서울특별시",
        "box_address_town": "서초구",
        "box_address": "서울특별시 서초구 남부순환로 2610 양재종합사회복지관(양재동)",
        "box_lat": "37.4845270",
        "box_long": "127.0361645"
    },
    {
        "box_address_city": "서울특별시",
        "box_address_town": "서초구",
        "box_address": "서울특별시 서초구 사평대로 154 (반포4동)",
        "box_lat": "37.5007885",
        "box_long": "127.0022009"
    },
    {
        "box_address_city": "서울특별시",
        "box_address_town": "서초구",
        "box_address": "서울특별시 서초구 신반포로33길 15 (반포3동)",
        "box_lat": "37.5090443",
        "box_long": "127.0095245"
    },
    {
        "box_address_city": "서울특별시",
        "box_address_town": "서초구",
        "box_address": "서울특별시 서초구 잠원로 88 (반포3동)",
        "box_lat": "37.5122489",
        "box_long": "127.0082261"
    },
    {
        "box_address_city": "서울특별시",
        "box_address_town": "서초구",
        "box_address": "서울특별시 서초구 서초대로34가길 52 (방배1동)",
        "box_lat": "37.4863329",
        "box_long": "126.9978566"
    },
    {
        "box_address_city": "서울특별시",
        "box_address_town": "서초구",
        "box_address": "서울특별시 서초구 방배로18길 67 (방배1동)",
        "box_lat": "37.4859662",
        "box_long": "126.9989628"
    },
    {
        "box_address_city": "서울특별시",
        "box_address_town": "서초구",
        "box_address": "서울특별시 서초구 방배로18길 91 (방배1동)",
        "box_lat": "37.4863247",
        "box_long": "126.9997965"
    },
    {
        "box_address_city": "서울특별시",
        "box_address_town": "서초구",
        "box_address": "서울특별시 서초구 양재대로2길 90 (우면동)",
        "box_lat": "37.4576053",
        "box_long": "127.0175705"
    },
    {
        "box_address_city": "서울특별시",
        "box_address_town": "서초구",
        "box_address": "서울특별시 서초구 효령로68길 81 (서초1동)",
        "box_lat": "37.4851864",
        "box_long": "127.0206731"
    },
    {
        "box_address_city": "서울특별시",
        "box_address_town": "서초구",
        "box_address": "서울특별시 서초구 잠원로3길 8 (반포3동)",
        "box_lat": "37.5111929",
        "box_long": "127.0061579"
    },
    {
        "box_address_city": "서울특별시",
        "box_address_town": "서초구",
        "box_address": "서울특별시 서초구 바우뫼로 91 (양재1동)",
        "box_lat": "37.4750405",
        "box_long": "127.0317990"
    },
    {
        "box_address_city": "서울특별시",
        "box_address_town": "서초구",
        "box_address": "서울특별시 서초구 방배중앙로21길 55 (방배본동)",
        "box_lat": "37.4918230",
        "box_long": "126.9840857"
    },
    {
        "box_address_city": "서울특별시",
        "box_address_town": "서초구",
        "box_address": "서울특별시 서초구 서운로 221 (서초4동)",
        "box_lat": "37.5020972",
        "box_long": "127.0198690"
    },
    {
        "box_address_city": "인천광역시",
        "box_address_town": "계양구",
        "box_address": "인천광역시 계양구 경명대로1142번길 3",
        "box_lat": "37.5412438",
        "box_long": "126.7340726"
    },
    {
        "box_address_city": "인천광역시",
        "box_address_town": "계양구",
        "box_address": "인천광역시 계양구 효서로 381",
        "box_lat": "37.52800661",
        "box_long": "126.737781"
    },
    {
        "box_address_city": "인천광역시",
        "box_address_town": "계양구",
        "box_address": "인천광역시 계양구 계산로 171",
        "box_lat": "37.53768415",
        "box_long": "126.7328773"
    },
    {
        "box_address_city": "인천광역시",
        "box_address_town": "계양구",
        "box_address": "인천광역시 계양구 주부토로363번길 28",
        "box_lat": "37.52719553",
        "box_long": "126.7266538"
    },
    {
        "box_address_city": "인천광역시",
        "box_address_town": "계양구",
        "box_address": "인천광역시 계양구 용종로 26",
        "box_lat": "37.53682968",
        "box_long": "126.7432514"
    },
    {
        "box_address_city": "인천광역시",
        "box_address_town": "계양구",
        "box_address": "인천광역시 계양구 장제로 878",
        "box_lat": "37.54479345",
        "box_long": "126.739483"
    },
    {
        "box_address_city": "인천광역시",
        "box_address_town": "계양구",
        "box_address": "인천광역시 계양구 장제로 878",
        "box_lat": "37.54479345",
        "box_long": "126.739483"
    },
    {
        "box_address_city": "인천광역시",
        "box_address_town": "계양구",
        "box_address": "인천광역시 계양구 용종로 124",
        "box_lat": "37.54519393",
        "box_long": "126.7432618"
    },